stop_id,stop_name,stop_lat,stop_lon,zone_id,stop_url,location_type,parent_station
"de:07334:1714:1:1","Wörth (Rhein) Alte Bahnmeisterei","49.048742345982","8.26622538039577","","","","Pde:07334:1714"
"de:07334:1714:1:2","Wörth (Rhein) Alte Bahnmeisterei","49.0484420719247","8.26673742010779","","","","Pde:07334:1714"
"de:07334:1721:1:1","Maximiliansau Eisenbahnstraße","49.0373071007148","8.29789997731824","","","","Pde:07334:1721"
"de:07334:1721:2:2","Maximiliansau Eisenbahnstraße","49.0371363175998","8.29896897250649","","","","Pde:07334:1721"
"de:07334:1721:3:31","Maximiliansau Eisenbahnstraße","49.0375308845987","8.2966423359203","","","","Pde:07334:1721"
"de:07334:1721:3:32","Maximiliansau Eisenbahnstraße","49.0375191065247","8.29674115060156","","","","Pde:07334:1721"
"de:07334:1723","Maximiliansau West","49.0385967887531","8.29113566322788","","","","Pde:07334:1723"
"de:07334:1723:1:1","Maximiliansau West","49.038861789003","8.29202499535928","","","","Pde:07334:1723"
"de:07334:1723:2:2","Maximiliansau West","49.0389913441668","8.29171956816264","","","","Pde:07334:1723"
"de:07334:1723:3:31","Maximiliansau West","49.0387675668536","8.29118956214493","","","","Pde:07334:1723"
"de:07334:1731:1:1","Wörth (Rhein)","49.0459573817115","8.27280104827645","","","","Pde:07334:1731"
"de:07334:1731:2:2","Wörth (Rhein)","49.0458219566391","8.27298071133329","","","","Pde:07334:1731"
"de:07334:1731:2:3","Wörth (Rhein)","49.0456394266101","8.27316037439014","","","","Pde:07334:1731"
"de:07334:1731:3:4","Wörth (Rhein)","49.0455569934741","8.27323223961288","","","","Pde:07334:1731"
"de:07334:1731:3:5","Wörth (Rhein)","49.0454568959111","8.27318732384867","","","","Pde:07334:1731"
"de:07334:1731:4:11","Wörth Bahnhof","49.0461457985901","8.27268426728949","","","","Pde:07334:1731"
"de:07334:1734:1:1","Wörth (Rhein) Bienwaldhalle","49.0499434240771","8.2603683647425","","","","Pde:07334:1734"
"de:07334:1734:2:2","Wörth (Rhein) Bienwaldhalle","49.0496490448752","8.26131159579096","","","","Pde:07334:1734"
"de:07334:1735:1:1","Wörth (Rhein) Bürgerpark","49.0508795383549","8.254125073517","","","","Pde:07334:1735"
"de:07334:1735:2:2","Wörth (Rhein) Bürgerpark","49.0508147762994","8.25505932141261","","","","Pde:07334:1735"
"de:07334:1736:1:1","Wörth (Rhein) Rathaus","49.0523454932249","8.24980417699978","","","","Pde:07334:1736"
"de:07334:1736:2:11","Wörth (Rhein) Rathaus","49.0525574349307","8.24997485690379","","","","Pde:07334:1736"
"de:07334:1738:1:1","Wörth (Rhein) Badepark","49.058485549304","8.24411784125052","","","","Pde:07334:1738"
"de:07334:1738:1:2","Wörth (Rhein) Badepark","49.0585090955185","8.24423462223747","","","","Pde:07334:1738"
"de:07334:1739:1:1","Wörth (Rhein) Badallee","49.0559778136116","8.24992095798673","","","","Pde:07334:1739"
"de:07334:1741:1:1","Wörth (Rhein) Zügelstraße","49.0531520443376","8.2621470290053","","","","Pde:07334:1741"
"de:07334:1741:2:2","Wörth (Rhein) Zügelstraße","49.0524867877958","8.26190448387856","","","","Pde:07334:1741"
"de:07334:1743:1:1","Rheinzabern Alte Römerstraße","49.1099074151788","8.27307054286172","","","","Pde:07334:1743"
"de:07334:1743:2:2","Rheinzabern Alte Römerstraße","49.1090547407724","8.27297172818045","","","","Pde:07334:1743"
"de:07334:1743:3:91","Rheinzabern Alte Römerstr. (Ersatz)","49.1085901740669","8.27395987499312","","","","Pde:07334:1743"
"de:07334:1744:1:1","Rheinzabern Rappengasse","49.1148702773873","8.27334902059983","","","","Pde:07334:1744"
"de:07334:1744:2:2","Rheinzabern Rappengasse","49.1140706080271","8.27316935754298","","","","Pde:07334:1744"
"de:07334:1744:6:91","Rheinzabern Rappengasse (Ersatzhalt)","49.1145174836704","8.27199256452062","","","","Pde:07334:1744"
"de:07334:1744:6:92","Rheinzabern Rappengasse (Ersatzhalt)","49.1145704028878","8.27170510362967","","","","Pde:07334:1744"
"de:07334:1745:1:1","Rülzheim Freizeitzentrum","49.1526869641675","8.27955637921396","","","","Pde:07334:1745"
"de:07334:1745:2:2","Rülzheim Freizeitzentrum","49.1503720062059","8.27911620472468","","","","Pde:07334:1745"
"de:07334:1745:3:91","Rülzheim Freizeitzentrum (Ersatzhalt)","49.1514119880126","8.27907128896047","","","","Pde:07334:1745"
"de:07334:1745:3:92","Rülzheim Freizeitzentrum (Ersatzhalt)","49.1516998887222","8.27955637921396","","","","Pde:07334:1745"
"de:07334:1746:1:1","Bellheim Am Mühlbuckel","49.1921479851427","8.29654352123903","","","","Pde:07334:1746"
"de:07334:1746:1:3","Bellheim Am Mühlbuckel (Ersatzhalt)","49.1929933600189","8.29760353327444","","","","Pde:07334:1746"
"de:07334:1746:1:4","Bellheim Am Mühlbuckel (Ersatzhalt)","49.1928994301906","8.2977023479557","","","","Pde:07334:1746"
"de:07334:1746:2:2","Bellheim Am Mühlbuckel","49.1930520660711","8.29906778718776","","","","Pde:07334:1746"
"de:07334:1747:1:2","Germersheim Süd/Nolte","49.208424782741","8.3742927090904","","","","Pde:07334:1747"
"de:07334:1747:2:1","Germersheim Süd/Nolte","49.2082252439139","8.37301710138677","","","","Pde:07334:1747"
"de:07334:1748:2:2","Germersheim Mitte/Rhein","49.2209412997963","8.37893699910994","","","","Pde:07334:1748"
"de:07334:1748:3:1","Germersheim Mitte/Rhein","49.2188231622374","8.3797544660186","","","","Pde:07334:1748"
"de:07334:1748:4:91","Germersheim Mitte","49.219873441238","8.37687985710902","","","","Pde:07334:1748"
"de:07334:1748:4:92","Germersheim Mitte","49.2199907894608","8.37687985710902","","","","Pde:07334:1748"
"de:07334:1752:1:1","Wörth Ottstraße","49.0519863677162","8.26824658978532","","","","Pde:07334:1752"
"de:07334:1752:1:2","Wörth Ottstraße","49.0516743385288","8.26833642131375","","","","Pde:07334:1752"
"de:07334:1753:1:1","Wörth Wasserturm","49.0485657144032","8.25756562105566","","","","Pde:07334:1753"
"de:07334:1753:1:2","Wörth Wasserturm","49.0486481425514","8.25747578952723","","","","Pde:07334:1753"
"de:07334:1754:1:1","Wörth Silcherstraße","49.0561190978588","8.24535751634277","","","",""
"de:07334:1755:1:1","Wörth Richard-Wagner-Str.","49.0532580135842","8.24165645737169","","","","Pde:07334:1755"
"de:07334:32429:0:1","Wörth Dorschbergstraße","49.0502142514034","8.2515648749569","","","","Pde:07334:32429"
"de:07334:32429:0:2","Wörth Dorschbergstraße","49.0501965887967","8.25144809396995","","","","Pde:07334:32429"
"de:07334:32431:0:1","Wörth Berufsschule","49.0513505325843","8.24737872573232","","","","Pde:07334:32431"
"de:07334:32451:1:1","Rülzheim Bf.","49.1610645626028","8.29097396647671","","","","Pde:07334:32451"
"de:07334:32451:2:11","Rülzheim Bahnhof","49.1608295861698","8.29057870775165","","","","Pde:07334:32451"
"de:07334:32451:2:92","Rülzheim Bahnhof","49.1605123662168","8.29048887622322","","","","Pde:07334:32451"
"de:07334:32451:4:2","Rülzheim Bf.","49.1605241151402","8.28956361148045","","","","Pde:07334:32451"
"de:07334:32625:0:1","Sondernheim Scherer","49.1978715953003","8.36000949607091","","","","Pde:07334:32625"
"de:07334:32625:0:2","Sondernheim Scherer","49.1978305050749","8.36018017597491","","","","Pde:07334:32625"
"de:07334:32636:0:1","Germersheim Wasserturm","49.2122980239611","8.36576769704291","","","","Pde:07334:32636"
"de:07334:32636:0:2","Germersheim Wasserturm","49.2127029362047","8.36636058513052","","","","Pde:07334:32636"
"de:07334:32637:1:3","Germersheim","49.2257287776083","8.36495023013425","","","","Pde:07334:32637"
"de:07334:32637:2:13","Germersheim Bahnhof","49.2250247658425","8.36510294373258","","","","Pde:07334:32637"
"de:07334:32637:4:4","Germersheim","49.2256935772582","8.36491429752288","","","","Pde:07334:32637"
"de:07334:32637:4:5","Germersheim","49.2256407766861","8.36480649968877","","","","Pde:07334:32637"
"de:07334:32660:1:1","Bellheim Bf.","49.1879619925196","8.2944414634739","","","","Pde:07334:32660"
"de:07334:32660:2:11","Bellheim Bahnhof","49.1893769328772","8.29430671618126","","","","Pde:07334:32660"
"de:07334:32660:4:2","Bellheim Bf.","49.189065766892","8.29463010968359","","","","Pde:07334:32660"
"de:07334:35002:1:1","Sondernheim","49.1955352682767","8.3603688221846","","","","Pde:07334:35002"
"de:07334:35002:2:22","Sondernheim","49.1947016776532","8.36060238415851","","","","Pde:07334:35002"
"de:07334:35002:4:2","Sondernheim","49.1948073448478","8.3602610243505","","","","Pde:07334:35002"
"de:07334:35003:1:1","Rheinzabern Bf.","49.1203265007014","8.27442699894093","","","","Pde:07334:35003"
"de:07334:35003:3:11","Rheinzabern","49.1191388825071","8.27422038642555","","","","Pde:07334:35003"
"de:07334:35003:3:12","Rheinzabern","49.1191917967943","8.27423835273124","","","","Pde:07334:35003"
"de:07334:35003:4:2","Rheinzabern Bf.","49.1192623490894","8.27405868967439","","","","Pde:07334:35003"
"de:07334:35004:1:1","Jockgrim Bf.","49.0931864431589","8.27235189063432","","","","Pde:07334:35004"
"de:07334:35004:3:91","Jockgrim Bahnhof (Ersatzhalt)","49.0923393639652","8.27277409881792","","","","Pde:07334:35004"
"de:07334:35004:3:92","Jockgrim Bahnhof (Ersatzhalt)","49.091598157814","8.27162425525408","","","","Pde:07334:35004"
"de:07334:35004:4:2","Jockgrim Bf.","49.09052750717","8.27210934550758","","","","Pde:07334:35004"
"de:08115:4510:1:2","Bondorf (b. Herrenberg)","48.5234184909826","8.82782514664695","","","","Pde:08115:4510"
"de:08115:4510:1:3","Bondorf (b. Herrenberg)","48.5234363399797","8.82769039935431","","","","Pde:08115:4510"
"de:08115:4510:2:1","Bondorf (b. Herrenberg)","48.5234779876151","8.82789701186969","","","","Pde:08115:4510"
"de:08115:4512:2:1","Herrenberg","48.593849211072","8.86262588075859","","","","Pde:08115:4512"
"de:08115:4512:4:101","Herrenberg","48.5934986679108","8.86203299267098","","","","Pde:08115:4512"
"de:08115:5776:1:1","Gäufelden","48.5596092747317","8.84992370263937","","","","Pde:08115:5776"
"de:08115:5776:1:2","Gäufelden","48.5599303260852","8.85038184343433","","","","Pde:08115:5776"
"de:08121:1113:0:Hp7","Heilbronn Hbf/Busbahnhof","49.1414284368093","9.20695911236237","","","","Pde:08121:1113"
"de:08121:1113:0:Hp8","Heilbronn Hbf/Busbahnhof","49.1417927924639","9.2070489438908","","","","Pde:08121:1113"
"de:08121:1114:3:1","Heilbronn Hbf/Willy-Brandt-Platz","49.1425861382514","9.20827065267737","","","","Pde:08121:1114"
"de:08121:1114:3:2","Heilbronn Hbf/Willy-Brandt-Platz","49.1426860401539","9.20890845652918","","","","Pde:08121:1114"
"de:08121:1123:1:Moltk","Heilbronn Harmonie (Ersatzhalt)","49.141510710901","9.22340726521689","","","","Pde:08121:1123"
"de:08121:1123:91:1","Heilbronn Harmonie","49.1416223683783","9.22305692225603","","","","Pde:08121:1123"
"de:08121:1123:91:2","Heilbronn Harmonie","49.1415165876166","9.22373964187206","","","","Pde:08121:1123"
"de:08121:137:2:2","Heilbronn Neckar-Turm","49.1427154230281","9.21347189817314","","","","Pde:08121:137"
"de:08121:137:3:1","Heilbronn Neckar-Turm","49.1425978914268","9.21406478626074","","","","Pde:08121:137"
"de:08121:173:1:1","Heilbronn Pfühlpark","49.139888710756","9.24166103179274","","","","Pde:08121:173"
"de:08121:173:2:2","Heilbronn Pfühlpark","49.1400767714644","9.2405740702988","","","","Pde:08121:173"
"de:08121:173:5:0","Heilbronn Pfühlpark (Ersatzhalt)","49.1398123108893","9.24164306548705","","","","Pde:08121:173"
"de:08121:173:5:1","Heilbronn Pfühlpark (Ersatzhalt)","49.1400238794623","9.24036745778343","","","","Pde:08121:173"
"de:08121:2000:1:3","Böckingen Berufsschulzentrum","49.1403353537733","9.1808271207437","","","","Pde:08121:2000"
"de:08121:2000:2:4","Böckingen Berufsschulzentrum","49.1404235065248","9.18208476214164","","","","Pde:08121:2000"
"de:08121:2001","Böckingen West (Ersatzhalt)","49.1401061558856","9.16450473202897","","","","Pde:08121:2001"
"de:08121:2001:1:1","Böckingen West","49.1393539092163","9.16480117607277","","","","Pde:08121:2001"
"de:08121:2001:2:2","Böckingen West","49.1392481236128","9.16609475008208","","","","Pde:08121:2001"
"de:08121:2001:3","Böckingen West (Ersatzhalt)","49.1400473870257","9.1645316814875","","","","Pde:08121:2001"
"de:08121:23:1:0","Heilbronn Harmonie/Kunsthalle","49.1429093495608","9.22267064668381","","","","Pde:08121:23"
"de:08121:23:90:1","Heilbronn Harmonie/Kunsthalle","49.1428388309094","9.22273352875371","","","","Pde:08121:23"
"de:08121:24:2:2","HN Harmonie/Hafenmarktpass.","49.1421512687999","9.22229335426443","","","","Pde:08121:24"
"de:08121:24:90:1","HN Harmonie/Hafenmarktpass.","49.1421806519912","9.22225742165306","","","","Pde:08121:24"
"de:08121:26:1:1","Heilbronn Hbf","49.1429681150269","9.20740827000449","","","","Pde:08121:26"
"de:08121:3032:1:1","Heilbronn Friedensplatz","49.1412580114708","9.22937207870427","","","","Pde:08121:3032"
"de:08121:3032:2:2","Heilbronn Friedensplatz","49.1413285323716","9.22842884765582","","","","Pde:08121:3032"
"de:08121:3032:4:0","Heilbronn Friedensplatz (Ersatzhalt)","49.1412227509827","9.22911156727184","","","","Pde:08121:3032"
"de:08121:3032:4:1","Heilbronn Friedensplatz (Ersatzhalt)","49.1413872997123","9.22840189819729","","","","Pde:08121:3032"
"de:08121:3033:1:1","Heilbronn Finanzamt","49.1404235065248","9.23507638075923","","","","Pde:08121:3033"
"de:08121:3033:2:2","Heilbronn Finanzamt","49.1407819927655","9.23461823996426","","","","Pde:08121:3033"
"de:08121:3033:4:1","Heilbronn Finanzamt (Ersatzhalt)","49.1409289126068","9.23420501493351","","","","Pde:08121:3033"
"de:08121:31001:1:1","Heilbronn Techn. Schulzentrum","49.1491674802186","9.22161961780124","","","","Pde:08121:31001"
"de:08121:31001:1:2","Heilbronn Techn. Schulzentrum","49.1487267926625","9.22147588735576","","","","Pde:08121:31001"
"de:08121:31002:1:1","Heilbronn Theater","49.146323507551","9.22189809553936","","","","Pde:08121:31002"
"de:08121:31002:1:2","Heilbronn Theater","49.1462471176043","9.22217657327747","","","","Pde:08121:31002"
"de:08121:31003:1:1","Heilbronn Industrieplatz","49.1551016908273","9.21782872730173","","","","Pde:08121:31003"
"de:08121:31003:1:2","Heilbronn Industrieplatz","49.1557479480681","9.21805330612279","","","","Pde:08121:31003"
"de:08121:31004:1:1","Heilbronn Hans-Rießer-Straße","49.1626799953995","9.21966129048159","","","","Pde:08121:31004"
"de:08121:31004:1:2","Heilbronn Hans-Rießer-Straße","49.1620162057553","9.21950857688327","","","","Pde:08121:31004"
"de:08121:31501:1:1","Heilbronn Kaufland","49.1703863530106","9.22454812562788","","","","Pde:08121:31501"
"de:08121:31501:1:2","Heilbronn Kaufland","49.1698577539902","9.22448524355798","","","","Pde:08121:31501"
"de:08121:55:2:2","Heilbronn Rathaus","49.1420337358607","9.21835873331943","","","","Pde:08121:55"
"de:08121:55:3:1","Heilbronn Rathaus","49.1420102292394","9.21867314366892","","","","Pde:08121:55"
"de:08121:59:0:0","Böckingen Sandhof","49.1406703333948","9.18213866105869","","","","Pde:08121:59"
"de:08121:59:0:1","Böckingen Sandhof","49.1406820870246","9.1829022290503","","","","Pde:08121:59"
"de:08121:75:1:1","Heilbronn Sülmertor","49.1513708592032","9.22047875739025","","","","Pde:08121:75"
"de:08121:75:3:2","Heilbronn Sülmertor","49.151012449562","9.22016434704077","","","","Pde:08121:75"
"de:08121:77:3","Böckingen Sonnenbrunnen (Ersatzhalt)","49.1411169693681","9.19077147094028","","","","Pde:08121:77"
"de:08121:77:4","Böckingen Sonnenbrunnen (Ersatzhalt)","49.1415048341847","9.1912835106523","","","","Pde:08121:77"
"de:08121:77:90:2","Böckingen Sonnenbrunnen","49.1403118463464","9.192954377081","","","","Pde:08121:77"
"de:08121:77:91:1","Böckingen Sonnenbrunnen","49.1409289126068","9.18961264422361","","","","Pde:08121:77"
"de:08121:8170","Heilbronn Trappensee","49.1404176296795","9.25191080918597","","","","Pde:08121:8170"
"de:08121:8170:1:1","Heilbronn Trappensee","49.1408290071621","9.25395896803405","","","","Pde:08121:8170"
"de:08121:8170:2:2","Heilbronn Trappensee","49.1400062487823","9.25169521351775","","","","Pde:08121:8170"
"de:08121:8194:0:0","Heilbronn Pfühlpark West","49.1410758320125","9.24481411844044","","","","Pde:08121:8194"
"de:08121:8194:0:1","Heilbronn Pfühlpark West","49.1410288178501","9.24483208474612","","","","Pde:08121:8194"
"de:08125:10013:0:1","Weinsberg Weidachstraße","49.1533391282252","9.27413512931818","","","","Pde:08125:10013"
"de:08125:10013:0:2","Weinsberg Weidachstraße","49.1535506390487","9.27389258419143","","","","Pde:08125:10013"
"de:08125:1023:2:1","Eschenau (b. Heilbronn)","49.1441610389235","9.40405846887847","","","","Pde:08125:1023"
"de:08125:1023:3:2","Eschenau (b. Heilbronn)","49.1435733952726","9.40157911869396","","","","Pde:08125:1023"
"de:08125:1110:2:1","Eppingen West","49.1324891309135","8.904110080585","0278","","","Pde:08125:1110"
"de:08125:1110:90:2","Eppingen West","49.1326008087154","8.9046400866027","0278","","","Pde:08125:1110"
"de:08125:1120:1","Bad Friedrichshall-Kochendorf","49.2183537565847","9.21158543607623","","","","Pde:08125:1120"
"de:08125:1120:2:1","Bad Friedrichshall-Kochendorf","49.2190695984204","9.2106691544863","","","","Pde:08125:1120"
"de:08125:1120:2:2","Bad Friedrichshall-Kochendorf","49.2186001951083","9.21095661537726","","","","Pde:08125:1120"
"de:08125:1438:1:1","Lauffen (Neckar)","49.0767481732566","9.14700555029189","","","","Pde:08125:1438"
"de:08125:1565:1:1","Wieslensdorf","49.1497433060515","9.42214155555031","","","","Pde:08125:1565"
"de:08125:1565:2:2","Wieslensdorf","49.1498843236026","9.4225188479697","","","","Pde:08125:1565"
"de:08125:1565:3","Wieslensdorf (Ersatzhalt)","49.1449484704904","9.42838484677581","","","","Pde:08125:1565"
"de:08125:1598:1:1","Weinsberg/Ellhofen Gewerbegebiet","49.1487914270827","9.3060343050617","","","","Pde:08125:1598"
"de:08125:1598:2:2","Weinsberg/Ellhofen Gewerbegebiet","49.148685661624","9.30479462996945","","","","Pde:08125:1598"
"de:08125:1598:3","Weinsberg/Ellhofen Gewerbegebiet","49.1484741300292","9.30738177798807","","","","Pde:08125:1598"
"de:08125:1621:0:1","Neckarsulm","49.188877892142","9.21886178987861","","","","Pde:08125:620"
"de:08125:1630:1:1","Bad Rappenau Kurpark","49.2403934081927","9.11357025541231","","","",""
"de:08125:1700:2:1","Stetten am Heuchelberg","49.1369913102823","9.01524964755174","","","","Pde:08125:1700"
"de:08125:1700:2:2","Stetten am Heuchelberg","49.1366798149555","9.01414471975212","","","","Pde:08125:1700"
"de:08125:1705:1:1","Schwaigern West","49.1390424287373","9.04197452725801","","","","Pde:08125:1705"
"de:08125:1705:1:2","Schwaigern West","49.1388602411347","9.04307047190479","","","","Pde:08125:1705"
"de:08125:1705:3","Schwaigern West (Ersatzhalt)","49.1386427905387","9.04892748755807","","","","Pde:08125:1705"
"de:08125:1800:1:1","Schwaigern Heilbronner Str. (Ersatz)","49.1388132248704","9.06673209649179","","","","Pde:08125:1800"
"de:08125:1801:1:1","Leingarten Allmandstraße (Ersatzhalt)","49.1434499892206","9.13021603762936","","","","Pde:08125:1801"
"de:08125:1939:1:1","Weinsberg West","49.1512650992509","9.27459327011314","","","","Pde:08125:1939"
"de:08125:1939:2:0","Weinsberg West","49.1512180947552","9.27334461186804","","","","Pde:08125:1939"
"de:08125:2002:1:1","Bad Wimpfen","49.2298177142859","9.16721764418739","","","","Pde:08125:2002"
"de:08125:2002:30:1","Bad Wimpfen","49.229242819674","9.16693916644927","","","","Pde:08125:2002"
"de:08125:2003:2:2","Ellhofen","49.1499137022085","9.31557441338038","","","","Pde:08125:2003"
"de:08125:2003:3:1","Ellhofen","49.1499842107918","9.31657154334589","","","","Pde:08125:2003"
"de:08125:2004:1:1","Sülzbach","49.1482449697823","9.34131114627399","","","","Pde:08125:2004"
"de:08125:2004:2:2","Sülzbach","49.1485446406611","9.3398738418192","","","","Pde:08125:2004"
"de:08125:2004:3","Sülzbach (Ersatzhalt)","49.1469581271711","9.3404038478369","","","","Pde:08125:2004"
"de:08125:2005:1:1","Sülzbach Schule","49.1446899122512","9.35190228347523","","","","Pde:08125:2005"
"de:08125:2005:2:2","Sülzbach Schule","49.1451893985444","9.35054582739602","","","","Pde:08125:2005"
"de:08125:2006:0:1","Sülzbach M.-Beheim-Schule","49.1433148298586","9.35197414869797","","","","Pde:08125:2006"
"de:08125:2006:0:2","Sülzbach M.-Beheim-Schule","49.142868213693","9.35182143509965","","","","Pde:08125:2006"
"de:08125:2017:1:1","Willsbach","49.1428623371377","9.35731014148638","","","","Pde:08125:2017"
"de:08125:2017:2:2","Willsbach","49.142398087065","9.35842405243885","","","","Pde:08125:2017"
"de:08125:2017:3:0","Willsbach Bahnhof","49.1422570482069","9.3581186252422","","","","Pde:08125:2017"
"de:08125:2032:1","Affaltrach (Ersatzhalt)","49.1361508561425","9.38134007533993","","","","Pde:08125:2032"
"de:08125:2032:2:1","Affaltrach","49.1379316616581","9.37948056270154","","","","Pde:08125:2032"
"de:08125:2032:4:2","Affaltrach","49.1376906983181","9.37861818002867","","","","Pde:08125:2032"
"de:08125:31502:1:1","Neckarsulm Süd","49.1803934294831","9.22062248783573","","","","Pde:08125:31502"
"de:08125:31502:1:2","Neckarsulm Süd","49.1802055218037","9.22064943729426","","","","Pde:08125:31502"
"de:08125:31502:3:SEV1","Neckarsulm Süd","49.1792307392663","9.22003858290097","","","","Pde:08125:31502"
"de:08125:31502:3:SEV2","Neckarsulm Süd","49.1798766816478","9.2191133181582","","","","Pde:08125:31502"
"de:08125:31503:1:1","Neckarsulm Mitte","49.1934688770383","9.22301200649182","","","","Pde:08125:31503"
"de:08125:31503:1:2","Neckarsulm Mitte","49.1926763461333","9.22237420264001","","","","Pde:08125:31503"
"de:08125:31504:1:1","Neckarsulm Nord","49.2021506618805","9.22875224115814","","","","Pde:08125:31504"
"de:08125:31504:1:2","Neckarsulm Nord","49.2014521838419","9.22853664548992","","","","Pde:08125:31504"
"de:08125:33415:0:1","Elsenz Freudenhälde","49.1715727435964","8.8430515907149","0278","","","Pde:08125:33415"
"de:08125:33415:0:2","Elsenz Freudenhälde","49.1713201974872","8.84324023692459","0278","","","Pde:08125:33415"
"de:08125:3900:1:21","Gemmingen Bahnhof","49.1513708592032","8.98493150670848","","","","Pde:08125:3900"
"de:08125:3900:2:1","Gemmingen","49.151664635664","8.98353911801791","","","","Pde:08125:3900"
"de:08125:3900:2:2","Gemmingen","49.1513826102951","8.98430268600951","","","","Pde:08125:3900"
"de:08125:4344:1:1","Weinsberg","49.1484858818081","9.2855257671224","","","","Pde:08125:4344"
"de:08125:4344:1:2","Weinsberg","49.1480921956956","9.28645103186517","","","","Pde:08125:4344"
"de:08125:4344:31","Weinsberg Bahnhof","49.1479394211378","9.28788833631996","","","","Pde:08125:4344"
"de:08125:4391:1:1","Schwaigern Ost","49.1405292896196","9.06913059830073","","","","Pde:08125:4391"
"de:08125:4402:0:1","Leingarten Kirche","49.1483801156971","9.10255691002747","","","","Pde:08125:4402"
"de:08125:4402:0:2","Leingarten Kirche","49.1482978530103","9.10258385948599","","","","Pde:08125:4402"
"de:08125:4405:1:1","Gemmingen West","49.1547550584696","8.97699039959576","","","","Pde:08125:4405"
"de:08125:4405:5:51","Gemmingen West (Ersatzhalt)","49.1530218602965","8.97883194592846","","","","Pde:08125:4405"
"de:08125:4557:2:1","Offenau","49.2475540314989","9.16500778858815","","","","Pde:08125:4557"
"de:08125:4557:3:2","Offenau","49.2452962893909","9.16549287884164","","","","Pde:08125:4557"
"de:08125:4569:2:1","Gundelsheim (Neckar)","49.283382592649","9.15783923261988","","","","Pde:08125:4569"
"de:08125:4569:4:2","Gundelsheim (Neckar)","49.2823043639339","9.15819855873358","","","","Pde:08125:4569"
"de:08125:4595:1:1","Bad Wimpfen Im Tal","49.2297766506069","9.1869446478294","","","","Pde:08125:4595"
"de:08125:4615:1:1","Bad Rappenau","49.2374842916572","9.10093994251583","","","","Pde:08125:4615"
"de:08125:4615:1:2","Bad Rappenau","49.2374784263298","9.10116452133689","","","","Pde:08125:4615"
"de:08125:4615:2:1","Bad Rappenau","49.2376250593057","9.10119147079542","","","","Pde:08125:4615"
"de:08125:4615:5:2","Bad Rappenau","49.237707173582","9.10116452133689","","","","Pde:08125:4615"
"de:08125:511","Neckarsulm AUDI Tor 6","49.2021682704431","9.22701849265955","","","",""
"de:08125:519:1:2","Bad Friedrichshall Hbf","49.2322345449848","9.19994326999242","","","","Pde:08125:519"
"de:08125:519:1:20","Bad Friedrichshall Hbf","49.2322521428329","9.19990733738105","","","","Pde:08125:519"
"de:08125:519:3:3","Bad Friedrichshall Hbf","49.2317418026903","9.19981750585263","","","","Pde:08125:519"
"de:08125:519:4:5","Bad Friedrichshall Hbf","49.231624482372","9.19968275855999","","","","Pde:08125:519"
"de:08125:519:5:10","Bad Friedrichshall Hbf","49.2314543674155","9.19947614604461","","","","Pde:08125:519"
"de:08125:519:5:11","Bad Friedrichshall Hbf","49.2313722427441","9.19933241559913","","","","Pde:08125:519"
"de:08125:5404:1:1","Eppingen","49.1360862052338","8.91446765581234","0278","","","Pde:08125:5404"
"de:08125:5404:2:Mast1","Eppingen Bahnhof","49.1359921673979","8.91365917205652","0278","","","Pde:08125:5404"
"de:08125:5404:90:2","Eppingen","49.1362331389953","8.91506054389994","0278","","","Pde:08125:5404"
"de:08125:5404:90:3","Eppingen","49.1359804126558","8.91471918409193","0278","","","Pde:08125:5404"
"de:08125:5405","Eschenau Schloss","49.1370265737808","9.40452559282628","","","","Pde:08125:5405"
"de:08125:5606:2:1","Bad Wimpfen-Hohenstadt","49.2427745333046","9.13924410623602","","","",""
"de:08125:620:90:7","Neckarsulm","49.1890187982714","9.21956247580032","","","","Pde:08125:620"
"de:08125:620:90:8","Neckarsulm","49.1889894428608","9.2197062062458","","","","Pde:08125:620"
"de:08125:620:91:2","Neckarsulm","49.1889953139443","9.21992180191402","","","","Pde:08125:620"
"de:08125:623:0:1","Neckarsulm AUDI Forum","49.192582415703","9.22112554439491","","","","Pde:08125:623"
"de:08125:623:0:2","Neckarsulm AUDI Forum","49.1926939580691","9.22119740961765","","","","Pde:08125:623"
"de:08125:6232:1","Babstadt","49.2403934081927","9.06037202427934","","","","Pde:08125:6232"
"de:08125:6232:2:1","Babstadt","49.2401529433629","9.06032710851513","","","","Pde:08125:6232"
"de:08125:630:0:1","Heilbronn Kaufland","49.1713143243066","9.2213141906046","","","","Pde:08121:31501"
"de:08125:665:1:1","Elsenz Rathaus","49.1753079263003","8.8354967591744","0278","","","Pde:08125:665"
"de:08125:665:1:2","Elsenz Rathaus","49.1752139628957","8.83538896134029","0278","","","Pde:08125:665"
"de:08125:666:1:1","Elsenz Siedlung","49.182301826434","8.83500268576807","0278","","","Pde:08125:666"
"de:08125:666:1:2","Elsenz Siedlung","49.1829124979157","8.83451759551457","0278","","","Pde:08125:666"
"de:08125:693:1:Mast1","Schwaigern Bahnhof","49.1386839299138","9.05755131428682","","","","Pde:08125:693"
"de:08125:693:90:1","Schwaigern (Württ.)","49.1383606910467","9.05597926253939","","","","Pde:08125:693"
"de:08125:693:90:2","Schwaigern (Württ.)","49.1383665681358","9.05699435881058","","","","Pde:08125:693"
"de:08125:700:0:2","Stetten Kirche","49.1299851309828","9.00844940085001","","","","Pde:08125:700"
"de:08125:7401:1:1","Leingarten","49.1450189861396","9.12240967780927","","","","Pde:08125:7401"
"de:08125:7401:1:2","Leingarten","49.1451188831376","9.12114305325849","","","","Pde:08125:7401"
"de:08125:7401:2:21","Leingarten Bahnhof","49.1449249652517","9.12078372714479","","","","Pde:08125:7401"
"de:08125:7403:1:2","Leingarten Mitte","49.1458827946994","9.11144124818865","","","","Pde:08125:7403"
"de:08125:7403:2:1","Leingarten Mitte","49.1454068204169","9.11415416034706","","","","Pde:08125:7403"
"de:08125:7404:2:1","Leingarten West","49.1459591852078","9.10551236731263","","","","Pde:08125:7404"
"de:08125:7404:3:2","Leingarten West","49.1460179470573","9.10630288476277","","","","Pde:08125:7404"
"de:08125:7405:0:1","Leingarten Kiesberg","49.1482390938646","9.11028242147197","","","","Pde:08125:7405"
"de:08125:7405:0:2","Leingarten Kiesberg","49.1483389843708","9.11033632038903","","","","Pde:08125:7405"
"de:08125:8155:1:1","Nordheim (Württ)","49.1092252768261","9.14869438302627","","","","Pde:08125:8155"
"de:08125:8155:2:2","Nordheim (Württ)","49.1092193962822","9.14874828194332","","","","Pde:08125:8155"
"de:08125:8402:1:2","Leingarten Ost","49.1446605305477","9.12957823377754","","","","Pde:08125:8402"
"de:08125:8402:2:1","Leingarten Ost","49.1436791716441","9.13238097746439","","","","Pde:08125:8402"
"de:08125:9200:1:3","Grombach","49.2259106456841","8.99568434066089","","","","Pde:08125:9200"
"de:08125:9200:2:1","Grombach","49.2261687798682","8.99683418422472","","","","Pde:08125:9200"
"de:08125:9200:3:2","Grombach","49.2261159798039","8.99684316737757","","","","Pde:08125:9200"
"de:08125:945:0:1","Ellhofen Bahnhofstraße","49.1498196906082","9.31794596573079","","","","Pde:08125:945"
"de:08125:945:0:2","Ellhofen Bahnhofstraße","49.1494142635379","9.3182244434689","","","","Pde:08125:945"
"de:08126:10101:1:1","Bretzfeld Bahnhof","49.1726475184432","9.44014379384658","","","","Pde:08126:10101"
"de:08126:10101:1:2","Bretzfeld Bahnhof","49.1724889465725","9.4399371813312","","","","Pde:08126:10101"
"de:08126:10101:2:1","Bretzfeld","49.1723597394875","9.44020667591647","","","","Pde:08126:10101"
"de:08126:10101:3:2","Bretzfeld","49.1730175174995","9.44061990094723","","","","Pde:08126:10101"
"de:08126:10113:0:1","Bitzfeld Schumm","49.1897761618412","9.44482401647749","","","","Pde:08126:10113"
"de:08126:10113:0:2","Bitzfeld Schumm","49.189729193895","9.44451858928085","","","","Pde:08126:10113"
"de:08126:10125:0:1","Scheppach Mitte","49.1632674124425","9.4397036193573","","","","Pde:08126:10125"
"de:08126:10125:0:2","Scheppach Mitte","49.1637608373738","9.43841004534798","","","","Pde:08126:10125"
"de:08126:10220:1:3","Öhringen Hbf","49.202960649269","9.50294501536811","","","","Pde:08126:10220"
"de:08126:10220:1:4","Öhringen Hbf","49.2028491300538","9.50320552680054","","","","Pde:08126:10220"
"de:08126:10220:2:1","Öhringen Hbf","49.2033304217094","9.50209161584808","","","","Pde:08126:10220"
"de:08126:10220:3:2","Öhringen Hbf","49.2030193434918","9.50393316218078","","","","Pde:08126:10220"
"de:08126:10220:3:3","Öhringen Hbf","49.2034184623591","9.50240602619757","","","","Pde:08126:10220"
"de:08126:19600:90:1","Scheppach","49.162022080039","9.43447542440299","","","","Pde:08126:19600"
"de:08126:19600:91:2","Scheppach","49.1613994020935","9.43404423306656","","","","Pde:08126:19600"
"de:08126:19601:90:1","Bitzfeld","49.187474680041","9.45361852311024","","","","Pde:08126:19601"
"de:08126:19601:91:2","Bitzfeld","49.1870695611945","9.45305258448117","","","","Pde:08126:19601"
"de:08126:19602:2:2","Öhringen-Cappel","49.2019510977333","9.52657070734375","","","","Pde:08126:19602"
"de:08126:19602:4:41","Öhringen Cappel S-Bahn","49.2020860970975","9.52508848712474","","","","Pde:08126:19602"
"de:08126:19602:90:1","Öhringen-Cappel","49.2020097931543","9.52728935957114","","","","Pde:08126:19602"
"de:08126:19603:1:1","Öhringen West","49.2003662950323","9.48622736792832","","","","Pde:08126:19603"
"de:08126:19603:10:11","Öhringen Westbahnhof","49.2003075976607","9.48527515372702","","","","Pde:08126:19603"
"de:08126:19603:2:1","Öhringen West","49.2000786772456","9.48522125480997","","","","Pde:08126:19603"
"de:08211:1847:2:11","Baden-Baden Bahnhof","48.7896590091848","8.19082977858913","0480","","","Pde:08211:1847"
"de:08211:1847:2:12","Baden-Baden Bahnhof","48.7895524791695","8.19071299760218","0480","","","Pde:08211:1847"
"de:08211:1847:2:13","Baden-Baden Bahnhof","48.7894400305745","8.19060519976807","0480","","","Pde:08211:1847"
"de:08211:1847:2:21","Baden-Baden Bahnhof","48.7897063557857","8.19110825632724","0480","","","Pde:08211:1847"
"de:08211:1847:2:22","Baden-Baden Bahnhof","48.789641254198","8.1910363911045","0480","","","Pde:08211:1847"
"de:08211:1847:2:23","Baden-Baden Bahnhof","48.7895347241449","8.19092859327039","0480","","","Pde:08211:1847"
"de:08211:1847:2:24","Baden-Baden Bahnhof","48.7894518672806","8.19084774489481","0480","","","Pde:08211:1847"
"de:08211:1847:2:31","Baden-Baden Bahnhof","48.7895347241449","8.19117113839714","0480","","","Pde:08211:1847"
"de:08211:1847:3:1","Baden-Baden","48.7902094106611","8.19099147534029","0480","","","Pde:08211:1847"
"de:08211:1847:4:2","Baden-Baden","48.7902508384849","8.19093757642324","0480","","","Pde:08211:1847"
"de:08211:1847:4:3","Baden-Baden","48.7902981845273","8.1908028291306","0480","","","Pde:08211:1847"
"de:08211:1847:5:4","Baden-Baden","48.7903218575318","8.19073096390786","0480","","","Pde:08211:1847"
"de:08211:31836:0:1","Steinbach Ziegelei","48.7321295087091","8.16709628877939","0480","","","Pde:08211:31836"
"de:08211:31836:0:2","Steinbach Ziegelei","48.7322539358751","8.16723103607202","0480","","","Pde:08211:31836"
"de:08211:31837:0:1","Baden-Baden Wörthstraße","48.7837048180785","8.20294805177359","0480","","","Pde:08211:31837"
"de:08211:31837:0:2","Baden-Baden Wörthstraße","48.7833319177929","8.20346009148561","0480","","","Pde:08211:31837"
"de:08211:31837:0:3","Baden-Baden Wörthstraße","48.7840126067032","8.20186109027965","0480","","","Pde:08211:31837"
"de:08211:31838:0:1","Ebersteinburg Wolfsschlucht","48.7743992401053","8.27665482084585","0480","","","Pde:08211:31838"
"de:08211:31838:0:2","Ebersteinburg Wolfsschlucht","48.7741683545991","8.27575650556161","0480","","","Pde:08211:31838"
"de:08211:31838:0:3","Ebersteinburg Wolfsschlucht","48.7746005240392","8.27570260664455","0480","","","Pde:08211:31838"
"de:08211:31839:0:1","Baden-Baden Wilhelm-Drapp-Str","48.7956420819469","8.19803426716877","0480","","","Pde:08211:31839"
"de:08211:31839:0:2","Baden-Baden Wilhelm-Drapp-Str","48.7954704706104","8.1980612166273","0480","","","Pde:08211:31839"
"de:08211:31840:0:1","Baden-Baden Werderstraße","48.7590163926327","8.23084972450222","0480","","",""
"de:08211:31841:0:1","Baden-Baden Waldseestr./Verfassungsplatz","48.7699411861253","8.22934953797754","0480","","","Pde:08211:31841"
"de:08211:31841:0:2","Baden-Baden Waldseestr./Verfassungsplatz","48.7701365673025","8.22829850909497","0480","","","Pde:08211:31841"
"de:08211:31842:0:1","Ebersteinburg Waldkapelle","48.7764061232382","8.2870573118374","0480","","","Pde:08211:31842"
"de:08211:31842:0:2","Ebersteinburg Waldkapelle","48.776246285929","8.28658120473676","0480","","","Pde:08211:31842"
"de:08211:31843:0:1","Baden-Baden Waldcafé","48.7623621780487","8.26046717942377","0480","","","Pde:08211:31843"
"de:08211:31843:0:2","Baden-Baden Waldcafé","48.7624332365609","8.26055701095219","0480","","","Pde:08211:31843"
"de:08211:31844:0:1","Baden-Baden Voglergasse","48.7470585700864","8.24447716736421","0480","","",""
"de:08211:31845:0:1","Varnhalt Kirche","48.7353348912955","8.17925947772806","0480","","","Pde:08211:31845"
"de:08211:31845:0:2","Varnhalt Kirche","48.7351038261882","8.17968168591165","0480","","","Pde:08211:31845"
"de:08211:31846:0:1","Baden-Baden U.Prinz-Weimar-Str","48.7637004298121","8.25058571129708","0480","","","Pde:08211:31846"
"de:08211:31846:0:2","Baden-Baden U.Prinz-Weimar-Str","48.7638484643212","8.25124148145457","0480","","","Pde:08211:31846"
"de:08211:31847:0:1","Steinbach Umweger Str.","48.7286454230409","8.17659148133385","0480","","","Pde:08211:31847"
"de:08211:31847:0:2","Steinbach Umweger Str.","48.7278454713364","8.17603452585762","0480","","","Pde:08211:31847"
"de:08211:31849:0:1","Baden-Baden Tiergarten / cts-Klinik","48.749036930361","8.21832720943985","0480","","","Pde:08211:31849"
"de:08211:31849:0:2","Baden-Baden Tiergarten / cts-Klinik","48.7491257770488","8.21818347899437","0480","","","Pde:08211:31849"
"de:08211:31849:0:3","Baden-Baden Tiergarten / cts-Klinik","48.7491850080867","8.21831822628701","0480","","","Pde:08211:31849"
"de:08211:31851:0:1","Lichtental Steinackergasse","48.7421537961574","8.26801302781142","0480","","","Pde:08211:31851"
"de:08211:31851:0:2","Lichtental Steinackergasse","48.7417213474749","8.2688754104843","0480","","","Pde:08211:31851"
"de:08211:31852:0:1","Balg Klinikum Mittelbaden","48.7864274980972","8.21818347899437","0480","","","Pde:08211:31852"
"de:08211:31852:0:2","Balg Klinikum Mittelbaden","48.7865399534431","8.21812958007732","0480","","","Pde:08211:31852"
"de:08211:31853:0:1","Baden-Baden Hauptfriedhof","48.7586847628235","8.25060367760276","0480","","",""
"de:08211:31854:0:1","Baden-Baden Stadelhoferstraße","48.7532362453674","8.23031971848452","0480","","","Pde:08211:31854"
"de:08211:31854:0:2","Baden-Baden Stadelhoferstraße","48.7533843107178","8.22976276300829","0480","","","Pde:08211:31854"
"de:08211:31855:0:1","Baden-Baden Solmsstraße","48.7601415488833","8.23454180032047","0480","","",""
"de:08211:31856:0:1","Baden-Baden Sinzheimer Str.","48.7871022263926","8.19440507342042","0480","","","Pde:08211:31856"
"de:08211:31856:0:2","Baden-Baden Sinzheimer Str.","48.7869365044938","8.19447693864316","0480","","","Pde:08211:31856"
"de:08211:31864:0:1","Baden-Baden Schirmhofweg","48.7503044615737","8.2217228412143","0480","","","Pde:08211:31864"
"de:08211:31864:0:2","Baden-Baden Schirmhofweg","48.7509382151897","8.22269302172128","0480","","","Pde:08211:31864"
"de:08211:31866:0:1","Lichtental Sauersbosch","48.7398611833218","8.27644820833048","0480","","","Pde:08211:31866"
"de:08211:31866:0:2","Lichtental Sauersbosch","48.7400803782172","8.27543311205928","0480","","","Pde:08211:31866"
"de:08211:31867:0:1","Sandweier Südring","48.8050502188541","8.18827856318187","0480","","","Pde:08211:31867"
"de:08211:31867:0:2","Sandweier Südring","48.8050088032508","8.18790127076249","0480","","","Pde:08211:31867"
"de:08211:31868:0:1","Sandweier Nord","48.8134568781282","8.19551000122004","0480","","","Pde:08211:31868"
"de:08211:31868:0:2","Sandweier Nord","48.8134332160408","8.19531237185751","0480","","","Pde:08211:31868"
"de:08211:31869:0:1","Sandweier Mühlstraße","48.8122974227123","8.19845647535236","0480","","","Pde:08211:31869"
"de:08211:31869:0:2","Sandweier Mühlstraße","48.8123624948999","8.19831274490689","0480","","","Pde:08211:31869"
"de:08211:31870:0:1","Sandweier Mitte","48.8081089624332","8.19544711915014","0480","","","Pde:08211:31870"
"de:08211:31870:0:2","Sandweier Mitte","48.8081977046263","8.19530338870467","0480","","","Pde:08211:31870"
"de:08211:31871:0:1","Sandweier Autobahnkirche","48.8093040107835","8.17487569914094","0480","","","Pde:08211:31871"
"de:08211:31871:0:2","Sandweier Autobahnkirche","48.8087952313041","8.17610639108036","0480","","","Pde:08211:31871"
"de:08211:31873:1:1","Baden-Baden Rheumazentrum","48.7633984380606","8.24711821429989","0480","","",""
"de:08211:31880:0:1","Baden-Baden Quettigstaffeln","48.7527683559921","8.23549401452177","0480","","",""
"de:08211:31882:0:1","Baden-Baden Obere Schußbach","48.7870371214262","8.21460818416308","0480","","","Pde:08211:31882"
"de:08211:31882:0:2","Baden-Baden Obere Schußbach","48.7872028429927","8.21441055480055","0480","","","Pde:08211:31882"
"de:08211:31883:0:1","Baden-Baden Ob.Prinz-Weimar-S","48.7607041175573","8.24979519384694","0480","","","Pde:08211:31883"
"de:08211:31883:0:2","Baden-Baden Ob.Prinz-Weimar-S","48.760621213096","8.24939095196903","0480","","","Pde:08211:31883"
"de:08211:31885:0:1","Baden-Baden Obere Breite","48.7812010058656","8.18853009146146","0480","","",""
"de:08211:31886:0:1","Baden-Baden Kaiser-Wilhelm-S.","48.7558184425229","8.23232296156838","0480","","",""
"de:08211:31887:0:1","Oberbeuern","48.7377758219188","8.28578170413378","0480","","",""
"de:08211:31888:0:1","Baden-Baden Neues Schloss","48.7647958748466","8.24133306386936","0480","","",""
"de:08211:31889:0:1","BAD Moltkestr./Rosengarten","48.7577135486449","8.23030175217883","0480","","",""
"de:08211:31890:0:1","Baden-Baden Merkurwald","48.7628536640341","8.26454553081424","0480","","",""
"de:08211:31891:0:1","Baden-Baden Maximilianstraße","48.7519273286914","8.24873518181153","0480","","",""
"de:08211:31893:0:2","BAD Maximilianstr./Falkenstr.","48.7517733362523","8.24872619865869","0480","","",""
"de:08211:31895:0:1","Baden-Baden Marktplatz/Rath.","48.7629484077676","8.24056051272491","0480","","",""
"de:08211:31896:0:1","Baden-Baden Markgrafenplatz","48.7589394073364","8.24704634907715","0480","","","Pde:08211:31896"
"de:08211:31896:0:2","Baden-Baden Markgrafenplatz","48.759010470691","8.24691160178452","0480","","","Pde:08211:31896"
"de:08211:31896:0:3","Baden-Baden Markgrafenplatz","48.7587262166694","8.247226012134","0480","","","Pde:08211:31896"
"de:08211:31897:0:1","Baden-Baden Mariahalden","48.7492620083316","8.23377823232886","0480","","",""
"de:08211:31898:0:1","Malschbach","48.7223876834831","8.24228527807066","0480","","",""
"de:08211:31900:0:1","BAD Lilienmattstr./Kl. Annaberg","48.7650268034531","8.25277760059063","0480","","","Pde:08211:31900"
"de:08211:31900:0:2","BAD Lilienmattstr./Kl. Annaberg","48.7655597115691","8.25309201094012","0480","","","Pde:08211:31900"
"de:08211:31901:0:1","BAD Lichtentaler All./Museen","48.7547405690222","8.23868303378084","0480","","","Pde:08211:31901"
"de:08211:31901:0:2","BAD Lichtentaler All./Museen","48.7548175607535","8.23844947180693","0480","","","Pde:08211:31901"
"de:08211:31902:0:1","Lichtental","48.7425921649969","8.26408739001927","0480","","","Pde:08211:31902"
"de:08211:31902:0:2","Lichtental","48.742461839525","8.26429400253465","0480","","","Pde:08211:31902"
"de:08211:31903:0:1","Lichtental Lerchenbergweg","48.7391325015286","8.28125419510119","0480","","","Pde:08211:31903"
"de:08211:31903:0:2","Lichtental Lerchenbergweg","48.7390140156858","8.28126317825403","0480","","","Pde:08211:31903"
"de:08211:31904:0:1","Baden-Baden Leopoldstraße","48.7658794537243","8.24339918902312","0480","","",""
"de:08211:31905:0:1","Baden-Baden Kurfürstenstraße","48.7615805277794","8.24810636111256","0480","","","Pde:08211:31905"
"de:08211:31905:0:2","Baden-Baden Kurfürstenstraße","48.7613022099741","8.24810636111256","0480","","","Pde:08211:31905"
"de:08211:31906:0:1","Baden-Baden Kuppenheimer Str.","48.7919493498097","8.19452185440737","0480","","","Pde:08211:31906"
"de:08211:31906:0:2","Baden-Baden Kuppenheimer Str.","48.7925352341067","8.19625560290596","0480","","","Pde:08211:31906"
"de:08211:31906:0:3","Baden-Baden Kuppenheimer Str.","48.7924227921964","8.19480931529833","0480","","","Pde:08211:31906"
"de:08211:31907:0:1","Baden-Baden Kronprinzenstr.","48.7589097975756","8.23583537432978","0480","","",""
"de:08211:31908:0:1","Lichtental Klosterplatz","48.7463536863792","8.25598458615539","0480","","","Pde:08211:31908"
"de:08211:31908:0:2","Lichtental Klosterplatz","48.7463181457624","8.25582288940422","0480","","","Pde:08211:31908"
"de:08211:31909:0:1","BAD Klostergut Fremersberg","48.7444936936706","8.19742341277548","0480","","","Pde:08211:31909"
"de:08211:31909:0:2","BAD Klostergut Fremersberg","48.7446477084198","8.19728866548285","0480","","","Pde:08211:31909"
"de:08211:31910:0:1","Baden-Baden Klinik Dr. Dengler","48.7637418795186","8.2350987557967","0480","","",""
"de:08211:31911:0:1","Baden-Baden Kettenbrücke","48.7503992289778","8.24473767879664","0480","","","Pde:08211:31911"
"de:08211:31911:0:2","Baden-Baden Kettenbrücke","48.7510922101883","8.24489937554781","0480","","","Pde:08211:31911"
"de:08211:31920:0:1","Lichtental Höllhäuserweg","48.7391621229457","8.25788901455799","0480","","","Pde:08211:31920"
"de:08211:31920:0:2","Lichtental Höllhäuserweg","48.7392983812395","8.25774528411251","0480","","","Pde:08211:31920"
"de:08211:31921:1:1","Baden-Baden Hubertusstraße","48.7804847623753","8.20376551868225","0480","","","Pde:08211:31921"
"de:08211:31921:1:4","Baden-Baden Hubertusstraße","48.780360454613","8.2038194175993","0480","","","Pde:08211:31921"
"de:08211:31922:0:1","Baden-Baden Otto-Flake-Str.","48.7661518250656","8.23082277504369","0480","","",""
"de:08211:31923:0:1","Steinbach Hohlgasse","48.7304230479341","8.17115667386417","0480","","","Pde:08211:31923"
"de:08211:31923:0:2","Steinbach Hohlgasse","48.7301978855902","8.17143515160229","0480","","","Pde:08211:31923"
"de:08211:31924:0:1","Baden-Baden Hochstraße","48.7644346766918","8.23191871969047","0480","","",""
"de:08211:31925:1:2","Baden-Baden Hochhaus","48.7850780142898","8.19224911673824","0480","","","Pde:08211:31925"
"de:08211:31925:2:3","Baden-Baden Hochhaus","48.7856343848174","8.19190775693022","0480","","","Pde:08211:31925"
"de:08211:31925:2:4","Baden-Baden Hochhaus","48.7849477990202","8.19088367750618","0480","","","Pde:08211:31925"
"de:08211:31926:0:1","Geroldsau Heschmattweg","48.7295875720614","8.25385557893173","0480","","","Pde:08211:31926"
"de:08211:31926:0:2","Geroldsau Heschmattweg","48.7300260504915","8.25397235991868","0480","","","Pde:08211:31926"
"de:08211:31927:0:1","Baden-Baden Herrengut","48.7667912998004","8.24237510959908","0480","","",""
"de:08211:31928:0:1","Baden-Baden Haus Reich","48.7529756492909","8.24395614449935","0480","","",""
"de:08211:31929:0:1","Baden-Baden Haus Planeck","48.7497417764305","8.23766793750964","0480","","",""
"de:08211:31930:0:1","Haueneberstein Siemensstraße","48.8114337293132","8.21826432736996","0480","","","Pde:08211:31930"
"de:08211:31930:0:2","Haueneberstein Siemensstraße","48.8109604663464","8.21806669800742","0480","","","Pde:08211:31930"
"de:08211:31931:0:1","Haueneberstein Industriegebiet","48.8120785429159","8.2111406871659","0480","","",""
"de:08211:31932:0:1","Baden-Baden Hans-Thoma-Str.","48.748954006644","8.24080305785165","0480","","",""
"de:08211:31933:0:1","Baden-Baden H.-Bredow-Str/SWR","48.7522649258485","8.22560356324223","0480","","","Pde:08211:31933"
"de:08211:31933:0:2","Baden-Baden H.-Bredow-Str/SWR","48.7524129940614","8.22551373171381","0480","","","Pde:08211:31933"
"de:08211:31934:0:1","Baden-Baden Große Dollenstr.","48.7743992401053","8.22314217936341","0480","","","Pde:08211:31934"
"de:08211:31934:0:2","Baden-Baden Große Dollenstr.","48.7740499513635","8.22340269079584","0480","","","Pde:08211:31934"
"de:08211:31935:0:1","Baden-Baden Golfplatz","48.7469223328297","8.2116706931836","0480","","","Pde:08211:31935"
"de:08211:31935:0:2","Baden-Baden Golfplatz","48.7470348766769","8.21157187850234","0480","","","Pde:08211:31935"
"de:08211:31936:0:1","Balg Gaßeck","48.7897537023419","8.22750799164483","0480","","","Pde:08211:31936"
"de:08211:31936:0:2","Balg Gaßeck","48.7901739010706","8.22778646938295","0480","","","Pde:08211:31936"
"de:08211:31937:0:1","Baden-Baden Gausplatz","48.7548234831895","8.24224036230644","0480","","","Pde:08211:31937"
"de:08211:31937:0:3","Baden-Baden Gausplatz","48.7557532969789","8.24125221549378","0480","","","Pde:08211:31937"
"de:08211:31938:0:1","Varnhalt Gallenbach","48.7403469653154","8.18037338868052","0480","","","Pde:08211:31938"
"de:08211:31938:0:2","Varnhalt Gallenbach","48.7396005178776","8.1796906690645","0480","","","Pde:08211:31938"
"de:08211:31940:1:1","Baden-Baden Friedrichshöhe","48.7614857814656","8.25330760660834","0480","","","Pde:08211:31940"
"de:08211:31940:1:2","Baden-Baden Friedrichshöhe","48.7618884520649","8.25275963428495","0480","","","Pde:08211:31940"
"de:08211:31940:2:3","Baden-Baden Friedrichshöhe","48.7621134724643","8.25303811202306","0480","","","Pde:08211:31940"
"de:08211:31940:2:4","Baden-Baden Friedrichshöhe","48.762225982286","8.25266081960368","0480","","","Pde:08211:31940"
"de:08211:31944:0:1","Baden-Baden Falkenstraße","48.7530407984367","8.24651634305945","0480","","",""
"de:08211:31945:0:1","Baden-Baden Entenstallhütte","48.7463477629448","8.20674792542594","0480","","","Pde:08211:31945"
"de:08211:31945:0:2","Baden-Baden Entenstallhütte","48.7464484612345","8.20664012759183","0480","","","Pde:08211:31945"
"de:08211:31946:0:1","Baden-Baden Engel/Höhenblick","48.7673064263037","8.23841353919556","0480","","","Pde:08211:31946"
"de:08211:31946:0:2","Baden-Baden Engel/Höhenblick","48.7668209049149","8.23906032620022","0480","","","Pde:08211:31946"
"de:08211:31948:0:1","Lichtental Eckerlestraße","48.7489125447342","8.25369388218056","0480","","","Pde:08211:31948"
"de:08211:31948:0:2","Lichtental Eckerlestraße","48.748574925052","8.25402625883573","0480","","","Pde:08211:31948"
"de:08211:31949:0:1","Baden-Baden Ebertplatz","48.7721317800428","8.22552271486665","0480","","","Pde:08211:31949"
"de:08211:31949:0:2","Baden-Baden Ebertplatz","48.7715811802935","8.22602577142583","0480","","","Pde:08211:31949"
"de:08211:31950:0:1","Ebersteinburg Klinik","48.7747366862428","8.27334003744699","0480","","","Pde:08211:31950"
"de:08211:31950:0:2","Ebersteinburg Klinik","48.7748373276341","8.27302562709751","0480","","","Pde:08211:31950"
"de:08211:31952:0:1","Ebersteinburg Kapelle","48.7779275121481","8.27122899652902","0480","","",""
"de:08211:31953:0:1","Baden-Baden Dreieichenkapelle","48.7780518259357","8.21778822026931","0480","","","Pde:08211:31953"
"de:08211:31953:0:2","Baden-Baden Dreieichenkapelle","48.7780103880407","8.21750075937835","0480","","","Pde:08211:31953"
"de:08211:31954:0:1","Baden-Baden Bäderviertel","48.7623799426861","8.24242002536329","0480","","",""
"de:08211:31956:0:1","Neuweier Buchgasse","48.7255462800349","8.17329466424067","0480","","","Pde:08211:31956"
"de:08211:31956:0:2","Neuweier Buchgasse","48.7253625772259","8.17342941153331","0480","","","Pde:08211:31956"
"de:08211:31956:0:91","Neuweier Buchgasse","48.7253092440267","8.17376178818848","0480","","","Pde:08211:31956"
"de:08211:31956:0:92","Neuweier Buchgasse","48.7254929470305","8.1735551756731","0480","","","Pde:08211:31956"
"de:08211:31957:0:1","Baden-Baden Bismarckstraße","48.7537752011462","8.23413755844256","0480","","","Pde:08211:31957"
"de:08211:31957:0:2","Baden-Baden Bismarckstraße","48.7538699620041","8.23394891223287","0480","","","Pde:08211:31957"
"de:08211:31958:0:1","Baden-Baden Birkenbuckel","48.7516844942459","8.23594317216389","0480","","",""
"de:08211:31959:0:1","Lichtental Bildeiche","48.7415910197451","8.27113916500059","0480","","","Pde:08211:31959"
"de:08211:31959:0:2","Lichtental Bildeiche","48.7413955275167","8.27187578353367","0480","","","Pde:08211:31959"
"de:08211:31960:0:3","Baden-Baden Bertholdplatz","48.7553861114239","8.24255477265593","0480","","","Pde:08211:31960"
"de:08211:31962:0:1","Balg Baumackerstraße","48.7875046915825","8.22176775697851","0480","","","Pde:08211:31962"
"de:08211:31962:0:2","Balg Baumackerstraße","48.7876171445145","8.22183063904841","0480","","","Pde:08211:31962"
"de:08211:31963:0:1","Baden-Baden Bauernfeldstraße","48.7815739219838","8.19986683034863","0480","","","Pde:08211:31963"
"de:08211:31963:0:2","Baden-Baden Bauernfeldstraße","48.7814436976224","8.19990276296","0480","","","Pde:08211:31963"
"de:08211:31964:0:1","Balg Kirche","48.7886469649073","8.22572932738203","0480","","","Pde:08211:31964"
"de:08211:31964:0:2","Balg Kirche","48.7885463512027","8.2254059338797","0480","","","Pde:08211:31964"
"de:08211:31965:0:1","Balg Friedhof","48.7905289958445","8.23093955603065","0480","","",""
"de:08211:31967:0:1","Lichtental Aubrücke","48.7502333859033","8.25140317820574","0480","","","Pde:08211:31967"
"de:08211:31967:0:2","Lichtental Aubrücke","48.7497476994648","8.25200504944618","0480","","","Pde:08211:31967"
"de:08211:31968:0:1","Varnhalt Am Kirchberg","48.73749737223","8.17787607219032","0480","","","Pde:08211:31968"
"de:08211:31968:0:2","Varnhalt Am Kirchberg","48.7374499763846","8.17768742598063","0480","","","Pde:08211:31968"
"de:08211:32170:0:1","Geroldsau Geroldsauer Mühle","48.7350149547102","8.25546356329052","0480","","","Pde:08211:32170"
"de:08211:32170:0:2","Geroldsau Geroldsauer Mühle","48.7350564280861","8.2552479676223","0480","","","Pde:08211:32170"
"de:08211:32209:1:1","BAD Hindenburgplatz/Stadtbib.","48.7642155880208","8.23703013365783","0480","","","Pde:08211:32209"
"de:08211:32209:1:2","BAD Hindenburgplatz/Stadtbib.","48.7639372848172","8.23685047060098","0480","","","Pde:08211:32209"
"de:08211:32254:2:4","BAD Hindenburgplatz (Kaiserallee)","48.7639372848172","8.23631148143043","0480","","","Pde:08211:32254"
"de:08211:32355:0:1","Steinbach Yburgstr./Sportsch.","48.7276736281987","8.16692560887538","0480","","","Pde:08211:32355"
"de:08211:32355:0:2","Steinbach Yburgstr./Sportsch.","48.7275610409969","8.16683577734696","0480","","","Pde:08211:32355"
"de:08211:32356:0:1","Steinbach Vimbucher Str.","48.7310274260822","8.15105237780278","0480","","","Pde:08211:32356"
"de:08211:32356:0:2","Steinbach Vimbucher Str.","48.731009650358","8.15089068105161","0480","","","Pde:08211:32356"
"de:08211:32357:0:1","Steinbach Schule","48.7300497519193","8.16318861729292","0480","","","Pde:08211:32357"
"de:08211:32357:0:2","Steinbach Schule","48.729919393928","8.16293708901333","0480","","","Pde:08211:32357"
"de:08211:32360:0:1","Steinbach Steinbacher Str./Postplatz","48.7278573225656","8.15900246806834","0480","","","Pde:08211:32360"
"de:08211:32360:0:2","Steinbach Steinbacher Str./Postplatz","48.7279817603039","8.15925399634793","0480","","","Pde:08211:32360"
"de:08211:32361:0:1","Steinbach Yburgstraße/Postplatz","48.7281773046991","8.15992773281111","0480","","",""
"de:08211:32362:0:1","Steinbach Alte Landstr.","48.7328168168266","8.16493134894436","0480","","","Pde:08211:32362"
"de:08211:32362:0:2","Steinbach Alte Landstr.","48.7327694165684","8.16476965219319","0480","","","Pde:08211:32362"
"de:08211:32363:0:1","Neuweier Winzergenossenschaft","48.7236973695416","8.17816353308128","0480","","","Pde:08211:32363"
"de:08211:32363:0:2","Neuweier Winzergenossenschaft","48.7235551428421","8.17818149938696","0480","","","Pde:08211:32363"
"de:08211:32364:0:1","Neuweier Schneckenbach","48.7175101363195","8.18072373164138","0480","","","Pde:08211:32364"
"de:08211:32364:0:2","Neuweier Schneckenbach","48.7174686484707","8.18049016966747","0480","","","Pde:08211:32364"
"de:08211:32365:0:1","Steinbach Poststraße/Postplatz","48.728835039357","8.15796042233862","0480","","",""
"de:08211:32366:0:1","Neuweier Kirche","48.7214928105009","8.18599684235989","0480","","","Pde:08211:32366"
"de:08211:32366:0:2","Neuweier Kirche","48.7215283686715","8.18588006137294","0480","","","Pde:08211:32366"
"de:08211:32368:0:1","Steinbach Grabenstraße/Postplatz","48.7286809761546","8.15957738985026","0480","","","Pde:08211:32368"
"de:08211:32370:1:1","Lichtental Brahmsplatz","48.7443278311052","8.25943411684688","0480","","","Pde:08211:32370"
"de:08211:32370:1:2","Lichtental Brahmsplatz","48.7445647774597","8.25936225162415","0480","","","Pde:08211:32370"
"de:08211:32371:0:1","Haueneberstein Waldstraße","48.8082272853224","8.22463338273525","0480","","","Pde:08211:32371"
"de:08211:32371:0:2","Haueneberstein Waldstraße","48.8088721401613","8.22511847298874","0480","","","Pde:08211:32371"
"de:08211:32372:0:1","Haueneberstein Karlsruher Str.","48.8064228309251","8.22230674614906","0480","","","Pde:08211:32372"
"de:08211:32372:0:2","Haueneberstein Karlsruher Str.","48.8062867546819","8.22185758850694","0480","","","Pde:08211:32372"
"de:08211:32374:0:1","Geroldsau Schule","48.7273417915122","8.2493640025105","0480","","","Pde:08211:32374"
"de:08211:32374:0:2","Geroldsau Schule","48.7277802895257","8.24946281719177","0480","","","Pde:08211:32374"
"de:08211:32375:0:1","Geroldsau Schmiegrankweg","48.7321354338192","8.25733205908175","0480","","","Pde:08211:32375"
"de:08211:32375:0:2","Geroldsau Schmiegrankweg","48.7318569528884","8.25682900252258","0480","","","Pde:08211:32375"
"de:08211:32376:0:1","Geroldsau Malschbacher Str.","48.7245744253011","8.2475224561778","0480","","","Pde:08211:32376"
"de:08211:32376:0:2","Geroldsau Malschbacher Str.","48.725084058784","8.24737872573232","0480","","","Pde:08211:32376"
"de:08211:32379:0:1","Baden-Baden Schweigrother Platz","48.7817100652731","8.20956863541847","0480","","","Pde:08211:32379"
"de:08211:32379:0:2","Baden-Baden Schweigrother Platz","48.7815502448523","8.20945185443152","0480","","","Pde:08211:32379"
"de:08211:32379:0:3","Baden-Baden Schweigrother Platz","48.7817100652731","8.21014355720039","0480","","","Pde:08211:32379"
"de:08211:32380:1:1","Baden-Baden L.-Wilhelm-Stift","48.764310329185","8.249849092764","0480","","","Pde:08211:32380"
"de:08211:32380:1:2","Baden-Baden L.-Wilhelm-Stift","48.7645116535656","8.25002875582084","0480","","","Pde:08211:32380"
"de:08211:32380:2:3","Baden-Baden L.-Wilhelm-Stift","48.7646537644072","8.25012757050211","0480","","","Pde:08211:32380"
"de:08211:32380:2:4","Baden-Baden L.-Wilhelm-Stift","48.7646952133269","8.24998384005663","0480","","","Pde:08211:32380"
"de:08211:32384:0:1","Baden-Baden Königsberger Str.","48.7815265677097","8.18721855114647","0480","","","Pde:08211:32384"
"de:08211:32384:0:2","Baden-Baden Königsberger Str.","48.7813726660102","8.18725448375783","0480","","","Pde:08211:32384"
"de:08211:32385:0:1","Baden-Baden Kleine Dollenstr.","48.7761042078937","8.2204741829692","0480","","","Pde:08211:32385"
"de:08211:32385:0:2","Baden-Baden Kleine Dollenstr.","48.7759562095127","8.22042028405214","0480","","","Pde:08211:32385"
"de:08211:32387:0:1","Baden-Baden Caracalla Therme","48.7625042949725","8.24433343691874","0480","","","Pde:08211:32387"
"de:08211:32387:0:2","Baden-Baden Caracalla Therme","48.7625635102387","8.24411784125052","0480","","","Pde:08211:32387"
"de:08211:32388:1:1","BAD Augustapl. / Museum Burda","48.7581636258428","8.24145882800915","0480","","","Pde:08211:32388"
"de:08211:32388:1:2","BAD Augustapl. / Museum Burda","48.758299832621","8.24118933342388","0480","","","Pde:08211:32388"
"de:08211:32388:1:3","BAD Augustaplatz / Museum Burda","48.7585604010806","8.24109051874261","0480","","","Pde:08211:32388"
"de:08211:32388:2:4","BAD Augustaplatz / Museum Burda","48.7581991580814","8.24105458613124","0480","","","Pde:08211:32388"
"de:08211:32388:2:5","BAD Augustapl. / Museum Burda","48.7583175986953","8.2409827209085","0480","","","Pde:08211:32388"
"de:08211:32389:0:1","Baden-Baden Festspielhaus","48.7676379991886","8.23277211921051","0480","","","Pde:08211:32389"
"de:08211:32389:0:2","Baden-Baden Festspielhaus","48.7677208920678","8.23244872570818","0480","","","Pde:08211:32389"
"de:08211:32392:1:11","BAD Leopoldsplatz (Luisenstraße)","48.761681195542","8.23862015171094","0480","","","Pde:08211:32392"
"de:08211:32392:1:12","BAD Leopoldsplatz (Luisenstraße)","48.761254836577","8.23942863546676","0480","","","Pde:08211:32392"
"de:08211:32393:1:21","Baden-Baden Leopoldspl. (Sophienstr.)","48.7611423245799","8.24047966434932","0480","","","Pde:08211:32393"
"de:08211:32393:1:22","Baden-Baden Leopoldspl. (Sophienstr.)","48.7612489148992","8.24013830454131","0480","","","Pde:08211:32393"
"de:08211:32549:0:1","BAD Altenpflegeheim Schafberg","48.7497121612484","8.26563249230817","0480","","",""
"de:08211:32832:0:1","Varnhalt Im Lindenbosch","48.7374381274163","8.17738199878399","0480","","","Pde:08211:32832"
"de:08211:32832:0:2","Varnhalt Im Lindenbosch","48.7360754774315","8.17529790732454","0480","","","Pde:08211:32832"
"de:08211:33088:1:1","Baden-Baden Pariser Platz Cité","48.7790285664114","8.20133108426195","0480","","","Pde:08211:33088"
"de:08211:33089:1:1","Baden-Baden Campus Cité / VHS","48.7799934489471","8.19555491698426","0480","","","Pde:08211:33089"
"de:08211:33090:1:1","Baden-Baden Shopping Cité","48.783574599246","8.19237488087803","0480","","",""
"de:08211:33091:0:1","Baden-Baden Gewerbepark Cité","48.7840777155935","8.19524050663477","0480","","","Pde:08211:33091"
"de:08211:33091:0:2","Baden-Baden Gewerbepark Cité","48.7840599586318","8.19505186042508","0480","","","Pde:08211:33091"
"de:08211:33108:1:1","Baden-Baden Kino Cité / P+R","48.7811891672133","8.19464761854717","0480","","","Pde:08211:33108"
"de:08211:33109:0:1","Baden-Baden Bretagne","48.7793955791322","8.19065011553228","0480","","","Pde:08211:33109"
"de:08211:33109:0:2","Baden-Baden Bretagne","48.7791173600577","8.19117113839714","0480","","","Pde:08211:33109"
"de:08211:33151:1:1","Haueneberstein R.-Bosch-Straße","48.8122264347749","8.21510225756942","0480","","","Pde:08211:33151"
"de:08211:33151:2:2","Haueneberstein R.-Bosch-Straße","48.8115224656222","8.21428479066075","0480","","","Pde:08211:33151"
"de:08211:34755:0:1","Baden-Baden Zimmerplatz","48.715500899771","8.22735527804651","0480","","","Pde:08211:34755"
"de:08211:34755:0:2","Baden-Baden Zimmerplatz","48.7155957327989","8.2270139182385","0480","","","Pde:08211:34755"
"de:08211:34756:0:1","Baden-Baden Schwanenwasen","48.6879384055577","8.23042751631863","0480","","","Pde:08211:34756"
"de:08211:34756:0:2","Baden-Baden Schwanenwasen","48.6879502661891","8.23025683641462","0480","","","Pde:08211:34756"
"de:08211:34757:0:1","Baden-Baden Dr. Fecht Waldheim","48.6792497425269","8.23407467637266","0480","","","Pde:08211:34757"
"de:08211:34757:0:2","Baden-Baden Dr. Fecht Waldheim","48.6781583642196","8.23416450790109","0480","","","Pde:08211:34757"
"de:08211:34769:0:1","Baden-Baden Ooswinkel","48.7772408209173","8.21264087369059","0480","","","Pde:08211:34769"
"de:08211:34769:0:2","Baden-Baden Ooswinkel","48.7771283447342","8.21257799162069","0480","","","Pde:08211:34769"
"de:08211:34770:0:1","Baden-Baden Vogesenstraße","48.7797270721864","8.20830201086769","0480","","","Pde:08211:34770"
"de:08211:34770:0:2","Baden-Baden Vogesenstraße","48.7796027625476","8.20830201086769","0480","","","Pde:08211:34770"
"de:08211:34771:0:1","Baden-Baden Schwarzwaldstraße","48.7801651132216","8.20552621663937","0480","","","Pde:08211:34771"
"de:08211:34771:0:2","Baden-Baden Schwarzwaldstraße","48.7803012603323","8.20543638511094","0480","","","Pde:08211:34771"
"de:08211:34772:0:1","Baden-Baden Schußbachstraße","48.7864807664503","8.20848167392453","0480","","","Pde:08211:34772"
"de:08211:34772:0:2","Baden-Baden Schußbachstraße","48.7866228151157","8.20870625274559","0480","","","Pde:08211:34772"
"de:08211:34774:0:1","Baden-Baden Kurhaus","48.7593835516532","8.23744335868858","0480","","",""
"de:08211:34791:0:1","Baden-Baden Römerweg","48.7841487433775","8.20301093384349","0480","","","Pde:08211:34791"
"de:08211:35110:1:1","Baden-Baden Haueneberstein","48.8119779762026","8.20913744408203","0480","","","Pde:08211:35110"
"de:08211:35110:2:2","Baden-Baden Haueneberstein","48.8117413478462","8.20890388210813","0480","","","Pde:08211:35110"
"de:08211:35113:1:1","Baden-Baden Rebland","48.7339188602316","8.14667758236851","0480","","","Pde:08211:35113"
"de:08211:35113:2:2","Baden-Baden Rebland","48.733806287013","8.14653385192303","0480","","","Pde:08211:35113"
"de:08211:35113:5:51","Steinbach Rebland","48.7351275252224","8.14551875565183","0480","","","Pde:08211:35113"
"de:08211:35113:5:52","Steinbach Rebland","48.7350149547102","8.14537502520635","0480","","","Pde:08211:35113"
"de:08212:10:1:1","Durlach Untermühlstraße","49.0020721444151","8.4549704047684","0100","","","Pde:08212:10"
"de:08212:10:1:3","Durlach Untermühlstraße","49.0021016105731","8.45481769117008","0100","","","Pde:08212:10"
"de:08212:10:2:2","Durlach Untermühlstraße","49.0019130268608","8.45577888852422","0100","","","Pde:08212:10"
"de:08212:10:2:4","Durlach Untermühlstraße","49.0018776673353","8.45599448419244","0100","","","Pde:08212:10"
"de:08212:10:21:21","Durlach Untermühlstraße","49.002231261461","8.45485362378145","0100","","","Pde:08212:10"
"de:08212:10:22:22","Durlach Untermühlstraße","49.0017480155269","8.45624601247203","0100","","","Pde:08212:10"
"de:08212:10000:0:1","Karlsruhe Pappelallee","48.9950999614041","8.33513514585018","0100","","",""
"de:08212:10001:1:1","Karlsruhe Falterweg","48.9970331750196","8.33643770301233","0100","","",""
"de:08212:1001:1:1","KA Durlacher Tor/KIT-Campus Süd (U)","49.009002104611","8.41669319050674","0100","","","Pde:08212:1001"
"de:08212:1001:2:2","KA Durlacher Tor/KIT-Campus Süd (U)","49.0088430091988","8.41760048894383","0100","","","Pde:08212:1001"
"de:08212:1001:91:1","KA Durlacher Tor/KIT-Campus Süd (U)","49.0090197818477","8.41653149375558","0100","","","Pde:08212:1001"
"de:08212:1001:92:2","KA Durlacher Tor/KIT-Campus Süd (U)","49.0088253318994","8.41773523623646","0100","","","Pde:08212:1001"
"de:08212:1002:1:1","Karlsruhe Kronenplatz (U)","49.0093556481515","8.40998277533343","0100","","","Pde:08212:1002"
"de:08212:1002:2:2","Karlsruhe Kronenplatz (U)","49.0092849396442","8.41089905692336","0100","","","Pde:08212:1002"
"de:08212:1002:91:1","Karlsruhe Kronenplatz (U)","49.0093615405226","8.40979412912374","0100","","","Pde:08212:1002"
"de:08212:1002:92:2","Karlsruhe Kronenplatz (U)","49.0092849396442","8.41107871998021","0100","","","Pde:08212:1002"
"de:08212:1003:1:1","KA Marktplatz (Kaiserstraße U)","49.0097091891816","8.40167335895417","0100","","","Pde:08212:1003"
"de:08212:1003:2:2","KA Marktplatz (Kaiserstraße U)","49.009614911819","8.40295794981064","0100","","","Pde:08212:1003"
"de:08212:1003:91:1","KA Marktplatz (Kaiserstraße U)","49.0097209738394","8.40153861166153","0100","","","Pde:08212:1003"
"de:08212:1003:92:2","KA Marktplatz (Kaiserstraße U)","49.0096090194779","8.40315557917317","0100","","","Pde:08212:1003"
"de:08212:1004:1:1","KA Europaplatz/Postgalerie (U)","49.0100686199887","8.39371428553576","0100","","","Pde:08212:1004"
"de:08212:1004:2:2","KA Europaplatz/Postgalerie (U)","49.0099979124939","8.39463955027854","0100","","","Pde:08212:1004"
"de:08212:1004:91:1","KA Europaplatz/Postgalerie (U)","49.0100745122754","8.39357953824313","0100","","","Pde:08212:1004"
"de:08212:1004:92:2","KA Europaplatz/Postgalerie (U)","49.0099920201982","8.39475633126549","0100","","","Pde:08212:1004"
"de:08212:101:1:1","Karlsruhe Starckstraße","49.0171447538227","8.35286788956116","0100","","","Pde:08212:101"
"de:08212:101:2:2","Karlsruhe Starckstraße","49.0164907986247","8.35284992325548","0100","","","Pde:08212:101"
"de:08212:1011:3:3","KA Marktplatz (Pyramide U)","49.0083009024955","8.40376643356646","0100","","","Pde:08212:1011"
"de:08212:1011:4:4","KA Marktplatz (Pyramide U)","49.0090079970239","8.40375745041362","0100","","","Pde:08212:1011"
"de:08212:1011:93:3","KA Marktplatz (Pyramide U)","49.0082125149734","8.40376643356646","0100","","","Pde:08212:1011"
"de:08212:1011:94:4","KA Marktplatz (Pyramide U)","49.0091199527368","8.40376643356646","0100","","","Pde:08212:1011"
"de:08212:1011:95:5","KA Marktplatz (Pyramide U)","49.0091199527368","8.4039011808591","0100","","","Pde:08212:1011"
"de:08212:1012:3:3","KA Ettlinger Tor/Staatstheater (U)","49.0050776027257","8.40343405691129","0100","","","Pde:08212:1012"
"de:08212:1012:4:4","KA Ettlinger Tor/Staatstheater (U)","49.0057729574379","8.40355083789824","0100","","","Pde:08212:1012"
"de:08212:1012:93:3","KA Ettlinger Tor/Staatstheater (U)","49.0049597450325","8.4034160906056","0100","","","Pde:08212:1012"
"de:08212:1012:94:4","KA Ettlinger Tor/Staatstheater (U)","49.0059261698826","8.40356880420393","0100","","","Pde:08212:1012"
"de:08212:1013:3:3","Karlsruhe Kongresszentrum (U)","49.002172329281","8.40311066340896","0100","","","Pde:08212:1013"
"de:08212:1013:4:4","Karlsruhe Kongresszentrum (U)","49.0028854039752","8.40321846124307","0100","","","Pde:08212:1013"
"de:08212:1013:93:3","Karlsruhe Kongresszentrum (U)","49.0020662511814","8.40309269710328","0100","","","Pde:08212:1013"
"de:08212:1013:94:4","Karlsruhe Kongresszentrum (U)","49.0030032665777","8.40322744439591","0100","","","Pde:08212:1013"
"de:08212:102:0:1","Karlsruhe Vogesenbrücke","49.0091081679368","8.3555628354139","0100","","","Pde:08212:102"
"de:08212:102:0:2","Karlsruhe Vogesenbrücke","49.0097504354716","8.35476333481092","0100","","","Pde:08212:102"
"de:08212:103:1:1","Karlsruhe Mühlburg West","49.0204792025874","8.3505682024335","0100","","","Pde:08212:103"
"de:08212:103:2:2","Karlsruhe Mühlburg West","49.0201669756983","8.35084668017161","0100","","","Pde:08212:103"
"de:08212:104:1:1","Knielingen Siemens","49.0252094948641","8.3463371374447","0100","","","Pde:08212:104"
"de:08212:104:2:2","Knielingen Siemens","49.0252448378214","8.34625628906912","0100","","","Pde:08212:104"
"de:08212:105:1:1","Knielingen Herweghstraße","49.0306696841209","8.34096521204492","0100","","","Pde:08212:105"
"de:08212:105:11:11","Knielingen Herweghstraße","49.0311232003974","8.341531150674","0100","","","Pde:08212:105"
"de:08212:105:12:12","Knielingen Herweghstraße","49.0310878616153","8.34149521806263","0100","","","Pde:08212:105"
"de:08212:105:2:2a","Knielingen Herweghstraße","49.0298215386909","8.3417647126479","0100","","","Pde:08212:105"
"de:08212:105:92:2b","Knielingen Herweghstraße","49.0301337050098","8.34145030229841","0100","","","Pde:08212:105"
"de:08212:106:1:1","Knielingen Eggensteiner Straße","49.0335085101601","8.33821636727513","0100","","","Pde:08212:106"
"de:08212:106:11:11","Knielingen Eggensteiner Straße","49.0339384427179","8.33818941781661","0100","","","Pde:08212:106"
"de:08212:106:2:2","Knielingen Eggensteiner Straße","49.0331904754663","8.33846789555472","0100","","","Pde:08212:106"
"de:08212:107:1:1","Knielingen Rheinbergstraße","49.0353401148417","8.33615922527421","0100","","","Pde:08212:107"
"de:08212:107:12:12","Knielingen Rheinbergstraße","49.0353283362489","8.33631193887254","0100","","","Pde:08212:107"
"de:08212:107:2:2","Knielingen Rheinbergstraße","49.0349160837441","8.33671618075045","0100","","","Pde:08212:107"
"de:08212:107:3:3","Knielingen Rheinbergstraße","49.0348984157032","8.33665329868055","0100","","","Pde:08212:107"
"de:08212:11:1:1","Durlach Auer Str./Dr. Schwabe","49.0005280933466","8.46315405700787","0100","","","Pde:08212:11"
"de:08212:11:2:2","Durlach Auer Str./Dr. Schwabe","49.0003866511607","8.46370202933126","0100","","","Pde:08212:11"
"de:08212:11:21:21","Durlach Auer Str./Dr. Schwabe","49.0005752406526","8.46340558528746","0100","","","Pde:08212:11"
"de:08212:11:22:22","Durlach Auer Str./Dr. Schwabe","49.0004220117448","8.46296541079818","0100","","","Pde:08212:11"
"de:08212:1101:1:1","KA Moltkestr./Städt. Klinikum","49.0157131109897","8.37517305806896","0100","","","Pde:08212:1101"
"de:08212:1101:2:2","KA Moltkestr./Städt. Klinikum","49.0153772875731","8.37510119284622","0100","","","Pde:08212:1101"
"de:08212:1101:3:3","KA Moltkestr./Städt. Klinikum","49.0152299958861","8.37420287756197","0100","","","Pde:08212:1101"
"de:08212:1101:4:4","KA Moltkestr./Städt. Klinikum","49.0151828624543","8.37469695096831","0100","","","Pde:08212:1101"
"de:08212:1103:1:1","KA Knielinger Allee/Städt. Klinikum","49.0188473536288","8.37540662004286","0100","","","Pde:08212:1103"
"de:08212:1103:2:2","KA Knielinger Allee/Städt. Klinikum","49.018900374833","8.37531678851443","0100","","","Pde:08212:1103"
"de:08212:1104:1:1","Karlsruhe August-Bebel-Straße","49.0241609757111","8.37578391246224","0100","","","Pde:08212:1104"
"de:08212:1104:11:11","Karlsruhe August-Bebel-Straße","49.0243376939702","8.37536170427865","0100","","","Pde:08212:1104"
"de:08212:1104:2:2","Karlsruhe August-Bebel-Straße","49.023919459742","8.37570306408666","0100","","","Pde:08212:1104"
"de:08212:1105:1:1","Karlsruhe Kurt-Schumacher-Str.","49.0302750626986","8.3763049353271","0100","","","Pde:08212:1105"
"de:08212:1105:2:2","Karlsruhe Kurt-Schumacher-Str.","49.0299805670603","8.37623307010436","0100","","","Pde:08212:1105"
"de:08212:1106:1:1","Karlsruhe Haus Bethlehem","49.0331021321349","8.37661934567659","0100","","","Pde:08212:1106"
"de:08212:1106:2:2","Karlsruhe Haus Bethlehem","49.0332552604762","8.37658341306522","0100","","","Pde:08212:1106"
"de:08212:1110:1:1","Neureut Welschneureuter Straße","49.0448150891013","8.37470593412115","0100","","","Pde:08212:1110"
"de:08212:1110:11:11","Neureut Welschneureuter Straße","49.0445501205713","8.37344829272321","0100","","","Pde:08212:1110"
"de:08212:1110:12:12","Neureut Welschneureuter Straße","49.0446619963451","8.37335846119478","0100","","","Pde:08212:1110"
"de:08212:1110:2:2","Neureut Welschneureuter Straße","49.0444264681075","8.37394236612954","0100","","","Pde:08212:1110"
"de:08212:1111:1:1","Neureut Bärenweg","49.0470113294531","8.37859563930193","0100","","","Pde:08212:1111"
"de:08212:1111:2:2","Neureut Bärenweg","49.0471879665537","8.37877530235878","0100","","","Pde:08212:1111"
"de:08212:1111:3:3","Neureut Bärenweg","49.0470937601782","8.37887411704004","0100","","","Pde:08212:1111"
"de:08212:1111:3:4","Neureut Bärenweg","49.0470996480818","8.37891903280426","0100","","","Pde:08212:1111"
"de:08212:1114:1:1","Neureut Adolf-Ehrmann-Bad","49.0508501010674","8.38527910501671","0100","","","Pde:08212:1114"
"de:08212:1114:2:2","Neureut Adolf-Ehrmann-Bad","49.0504026521517","8.38443468864952","0100","","","Pde:08212:1114"
"de:08212:1115:1:1","Neureut Kirchfeld","49.0530048644537","8.38907897866906","0100","","","Pde:08212:1115"
"de:08212:1115:2:2","Neureut Kirchfeld","49.0526339692136","8.38831541067745","0100","","","Pde:08212:1115"
"de:08212:12:1:1","Karlsruhe Duale Hochschule","49.0272534546439","8.38618640345379","0100","","","Pde:08212:12"
"de:08212:12:11:11","Karlsruhe Duale Hochschule","49.0270296245254","8.38642894858054","0100","","","Pde:08212:12"
"de:08212:12:12:12","Karlsruhe Duale Hochschule","49.0266349742322","8.38591690886852","0100","","","Pde:08212:12"
"de:08212:12:2:2","Karlsruhe Duale Hochschule","49.0265701806013","8.3859977572441","0100","","","Pde:08212:12"
"de:08212:1201:1:1","Karlsruhe Albtalbahnhof","48.9935615884297","8.39596007374637","0100","","","Pde:08212:1201"
"de:08212:1201:2:A","Karlsruhe Albtalbahnhof","48.9938621937799","8.39555583186846","0100","","","Pde:08212:1201"
"de:08212:1201:3:2","Karlsruhe Albtalbahnhof","48.9938621937799","8.39607685473333","0100","","","Pde:08212:1201"
"de:08212:1201:3:3","Karlsruhe Albtalbahnhof","48.9935203287303","8.39610380419185","0100","","","Pde:08212:1201"
"de:08212:1201:4:4","Karlsruhe Albtalbahnhof","48.9938621937799","8.39621160202596","0100","","","Pde:08212:1201"
"de:08212:1201:5:52","Karlsruhe Albtalbahnhof (Ersatzhalt)","48.9931902499046","8.39710991731021","0100","","","Pde:08212:1201"
"de:08212:1206:1:1","Karlsruhe Dammerstock","48.9846840716278","8.40364066942666","0100","","","Pde:08212:1206"
"de:08212:1206:12:12","Karlsruhe Dammerstock","48.9848491394917","8.40312862971465","0100","","","Pde:08212:1206"
"de:08212:1206:2:2","Karlsruhe Dammerstock","48.9842124461467","8.40361371996814","0100","","","Pde:08212:1206"
"de:08212:1207:0:1","Karlsruhe Schloss Rüppurr","48.9814710346662","8.40379338302499","0100","","","Pde:08212:1207"
"de:08212:1207:0:11","Karlsruhe Schloss Rüppurr","48.9810465445673","8.40365863573235","0100","","","Pde:08212:1207"
"de:08212:1207:0:2","Karlsruhe Schloss Rüppurr","48.9808755683672","8.40381134933067","0100","","","Pde:08212:1207"
"de:08212:1208:0:1","Rüppurr Ostendorfplatz","48.9759877593014","8.40664104247604","0100","","","Pde:08212:1208"
"de:08212:1208:0:2","Rüppurr Ostendorfplatz","48.975445294972","8.40654222779478","0100","","","Pde:08212:1208"
"de:08212:1209:0:1","Rüppurr Tulpenstraße","48.9713412431359","8.40405389445742","0100","","","Pde:08212:1209"
"de:08212:1209:0:2","Rüppurr Tulpenstraße","48.9708812852388","8.40404491130458","0100","","","Pde:08212:1209"
"de:08212:1210:0:1","Rüppurr Battstraße","48.9657035177336","8.40477254668481","0100","","","Pde:08212:1210"
"de:08212:1210:0:11","Rüppurr Battstraße","48.9656858251233","8.40440423741827","0100","","","Pde:08212:1210"
"de:08212:1210:0:2","Rüppurr Battstraße","48.9649250369454","8.40482644560187","0100","","","Pde:08212:1210"
"de:08212:1211:0:11","Karlsruhe Erlenweg","48.9826560503908","8.40870716762981","0100","","",""
"de:08212:1213:11:11","Rüppurr Heinrich-Heine-Ring","48.9663227551367","8.40703630120111","0100","","",""
"de:08212:1214:11:11","Rüppurr Hegaustraße","48.9667296783861","8.41188720373603","0100","","",""
"de:08212:1215:11:11","Rüppurr Prinzenweg","48.968687581506","8.41446536860181","0100","","",""
"de:08212:1216:11:11","Rüppurr Märchenring","48.9703033834045","8.41618115079472","0100","","",""
"de:08212:13:1:1","Neureut-Heide","49.0368006387337","8.38820761284334","0100","","","Pde:08212:13"
"de:08212:13:2:2","Neureut-Heide","49.0361704986044","8.38798303402228","0100","","","Pde:08212:13"
"de:08212:1510:1:1","Durlach Hubstraße","49.00722845663","8.47248755281117","0100","","","Pde:08212:1510"
"de:08212:1510:2:2","Durlach Hubstraße","49.0070811408331","8.47201144571052","0100","","","Pde:08212:1510"
"de:08212:1521:1:1","Grötzingen","49.0060675963363","8.49293320868058","0100","","","Pde:08212:1521"
"de:08212:1521:2:11","Grötzingen Bahnhof","49.0060852746148","8.49347219785112","0100","","","Pde:08212:1521"
"de:08212:1521:2:12","Grötzingen Bahnhof","49.0061206311529","8.49344524839259","0100","","","Pde:08212:1521"
"de:08212:1521:3:2","Grötzingen","49.0060675963363","8.49279846138794","0100","","","Pde:08212:1521"
"de:08212:1521:3:3","Grötzingen","49.0061206311529","8.49238523635719","0100","","","Pde:08212:1521"
"de:08212:1521:4:13","Grötzingen Bahnhof","49.0066156200503","8.49271761301236","0100","","","Pde:08212:1521"
"de:08212:1525:1:1","Grötzingen Oberausstraße","49.0051836744111","8.50391062145404","0100","","","Pde:08212:1525"
"de:08212:1525:2:2","Grötzingen Oberausstraße","49.0052956387228","8.5036051942574","0100","","","Pde:08212:1525"
"de:08212:1527:0:1","Grötzingen Hl.-Kreuz-Kirche","49.0043527734951","8.50356027849319","0100","","","Pde:08212:1527"
"de:08212:1527:0:2","Grötzingen Hl.-Kreuz-Kirche","49.0044824185224","8.50365909317446","0100","","","Pde:08212:1527"
"de:08212:16:1:1","Durlach Friedrichschule","48.9993376090784","8.46855293186618","0100","","","Pde:08212:16"
"de:08212:16:1:11","Durlach Friedrichschule","48.9993317155211","8.46860683078323","0100","","","Pde:08212:16"
"de:08212:16:2:12","Durlach Friedrichschule","48.9992904606008","8.46887632536851","0100","","","Pde:08212:16"
"de:08212:16:2:2","Durlach Friedrichschule","48.9992786734744","8.46892124113272","0100","","","Pde:08212:16"
"de:08212:1600:1:1","Grötzingen Krappmühlenweg","49.0058672420751","8.51269614493396","0100","","","Pde:08212:1600"
"de:08212:1600:1:2","Grötzingen Krappmühlenweg","49.005873134859","8.5120493579293","0100","","","Pde:08212:1600"
"de:08212:1600:2:21","Grötzingen Krappmühlenweg","49.0052543887425","8.51371124120515","0100","","","Pde:08212:1600"
"de:08212:1600:2:22","Grötzingen Krappmühlenweg","49.005413495621","8.51308242050618","0100","","","Pde:08212:1600"
"de:08212:1644:1:1","Grötzingen Im Sonnental","49.0018246279999","8.50284162626579","0100","","","Pde:08212:1644"
"de:08212:1644:1:2","Grötzingen Im Sonnental","49.0018246279999","8.50297637355843","0100","","","Pde:08212:1644"
"de:08212:1644:1:3","Grötzingen Im Sonnental","49.0017421222548","8.50273382843169","0100","","","Pde:08212:1644"
"de:08212:17:1:1","Durlach Schlossplatz","48.9991254405777","8.47375417736195","0100","","","Pde:08212:17"
"de:08212:17:1:13","Durlach Schlossplatz","48.9991254405777","8.47381705943185","0100","","","Pde:08212:17"
"de:08212:17:11:11","Durlach Schlossplatz","48.9990252495827","8.47448181274219","0100","","","Pde:08212:17"
"de:08212:17:2:14","Durlach Schlossplatz","48.9990959726589","8.47373621105627","0100","","","Pde:08212:17"
"de:08212:17:2:2","Durlach Schlossplatz","48.9991372277404","8.4742931665325","0100","","","Pde:08212:17"
"de:08212:1700:1","Maxau","49.0359879331504","8.30788924327904","0100","","","Pde:08212:1700"
"de:08212:1700:1:1","Maxau","49.035982043931","8.30783534436198","0100","","","Pde:08212:1700"
"de:08212:1700:2:2","Maxau","49.0360173792366","8.30708974267606","0100","","","Pde:08212:1700"
"de:08212:18:1:1","Durlach Turmberg","48.9998739198697","8.47851524836845","0100","","","Pde:08212:18"
"de:08212:18:1:2","Durlach Turmberg","48.999897493838","8.47855118097982","0100","","","Pde:08212:18"
"de:08212:18:1:3","Durlach Turmberg","48.9999328547694","8.47823677063034","0100","","","Pde:08212:18"
"de:08212:18:1:4","Durlach Turmberg","49.0002511020223","8.47787744451664","0100","","","Pde:08212:18"
"de:08212:18:1:5","Durlach Turmberg","49.0001273394434","8.4781649054076","0100","","","Pde:08212:18"
"de:08212:18:1:6","Durlach Turmberg","49.0000094700346","8.47844338314571","0100","","","Pde:08212:18"
"de:08212:18:12:9","Durlach Turmberg","48.9994377994451","8.47868592827246","0100","","","Pde:08212:18"
"de:08212:18:13:12","Durlach Turmberg","49.0002098478635","8.47808405703201","0100","","","Pde:08212:18"
"de:08212:18:41:1","Durlach Turmberg","48.999891600347","8.47847931575708","0100","","","Pde:08212:18"
"de:08212:19:1:1","Durlach Karl-Weysser-Straße","48.9986775263306","8.47671861779996","0100","","","Pde:08212:19"
"de:08212:19:11:11","Durlach Karl-Weysser-Straße","48.9985655471395","8.47671861779996","0100","","","Pde:08212:19"
"de:08212:2002:0:1","Durlach Friedhof","49.0024669894833","8.48329428568063","0100","","","Pde:08212:2002"
"de:08212:2002:0:2","Durlach Friedhof","49.00248466904","8.48313258892947","0100","","","Pde:08212:2002"
"de:08212:2003:0:1","Grötzingen Augustenburg","49.0042584859904","8.49876327487532","0100","","","Pde:08212:2003"
"de:08212:2003:0:2","Grötzingen Augustenburg","49.0043468805313","8.49888005586227","0100","","","Pde:08212:2003"
"de:08212:2004:0:1","Durlach Neßlerstraße","49.0024198439681","8.48697737834603","0100","","",""
"de:08212:201:1:1","Karlsruhe Eckenerstraße","49.0057611718457","8.3504424382937","0100","","","Pde:08212:201"
"de:08212:201:2:2","Karlsruhe Eckenerstraße","49.0063681262166","8.35127787150805","0100","","","Pde:08212:201"
"de:08212:201:21:21","Karlsruhe Eckenerstraße","49.0048183154324","8.34900513383891","0100","","","Pde:08212:201"
"de:08212:201:22:22","Karlsruhe Eckenerstraße","49.0047063500475","8.34920276320145","0100","","","Pde:08212:201"
"de:08212:201:3:3","Karlsruhe Eckenerstraße","49.005902598768","8.34945429148103","0100","","","Pde:08212:201"
"de:08212:201:4:4","Karlsruhe Eckenerstraße","49.0056904582339","8.34980463444189","0100","","","Pde:08212:201"
"de:08212:2016:1:1","Grötzingen LTZ Augustenberg","49.0031152357918","8.49257388256688","0100","","","Pde:08212:2016"
"de:08212:2016:1:2","Grötzingen LTZ Augustenberg","49.0032330978504","8.49256489941404","0100","","","Pde:08212:2016"
"de:08212:203:1:1","Karlsruhe Rheinhafenstraße","49.0013885246564","8.34489983298991","0100","","","Pde:08212:203"
"de:08212:203:2:2","Karlsruhe Rheinhafenstraße","49.0016772962164","8.34522322649224","0100","","","Pde:08212:203"
"de:08212:203:21:21","Karlsruhe Rheinhafenstraße","49.0018128414733","8.34512441181097","0100","","","Pde:08212:203"
"de:08212:203:22:22","Karlsruhe Rheinhafenstraße","49.0016124700936","8.34529509171498","0100","","","Pde:08212:203"
"de:08212:204:1:1","Daxlanden Thomas-Mann-Straße","48.9992256313712","8.34155810013252","0100","","","Pde:08212:204"
"de:08212:204:2:2","Daxlanden Thomas-Mann-Straße","48.9990429303612","8.34136047076999","0100","","","Pde:08212:204"
"de:08212:205:1:1","Daxlanden Karl-Delisle-Straße","48.9957600915619","8.3377851759387","0100","","","Pde:08212:205"
"de:08212:205:11:11","Daxlanden Karl-Delisle-Straße","48.9961078351807","8.3384409460962","0100","","","Pde:08212:205"
"de:08212:205:11:12","Daxlanden Karl-Delisle-Straße","48.9956775757706","8.33806365367681","0100","","","Pde:08212:205"
"de:08212:205:2:2","Daxlanden Karl-Delisle-Straße","48.9963023347903","8.3383780640263","0100","","","Pde:08212:205"
"de:08212:206:1:1","Daxlanden Dornröschenweg","48.9925182969661","8.33506328062744","0100","","","Pde:08212:206"
"de:08212:206:2:2","Daxlanden Dornröschenweg","48.9931254127354","8.33556633718661","0100","","","Pde:08212:206"
"de:08212:209:1:1","Daxlanden Nussbaumweg","48.9891466068006","8.33300613862652","0100","","","Pde:08212:209"
"de:08212:209:2:2","Daxlanden Nussbaumweg","48.9896122908762","8.33337444789306","0100","","","Pde:08212:209"
"de:08212:2102:0:1","KA-Grötzingen Emil-Arheit-Halle","49.0226058279706","8.49677799809714","0100","","",""
"de:08212:2103:0:1","Grötzingen Fröbelstraße","49.0076939716834","8.49115454441777","0100","","","Pde:08212:2103"
"de:08212:2103:0:2","Grötzingen Fröbelstraße","49.0077352196428","8.49105572973651","0100","","","Pde:08212:2103"
"de:08212:2104:1:1","Grötzingen Rathaus","49.0076114756621","8.49521492950256","0100","","","Pde:08212:2104"
"de:08212:2104:2:2","Grötzingen Rathaus","49.0076645088344","8.49618511000954","0100","","","Pde:08212:2104"
"de:08212:2104:3:3","Grötzingen Rathaus","49.0075054091482","8.4948645865417","0100","","","Pde:08212:2104"
"de:08212:2105:0:1","Grötzingen Karl-Leopold-Straße","49.0108287192153","8.49506221590424","0100","","","Pde:08212:2105"
"de:08212:2105:0:2","Grötzingen Karl-Leopold-Straße","49.0108346114121","8.49500831698718","0100","","","Pde:08212:2105"
"de:08212:2106:0:1","Grötzingen Nord","49.0151769707721","8.49419983323136","0100","","","Pde:08212:2106"
"de:08212:2106:0:2","Grötzingen Nord","49.0146172577909","8.49413695116146","0100","","","Pde:08212:2106"
"de:08212:2106:0:4","Grötzingen Nord","49.0146761752431","8.4942088163842","0100","","","Pde:08212:2106"
"de:08212:2107:0:1","Grötzingen Büchelbergstraße","49.0056727798153","8.49565510399184","0100","","","Pde:08212:2107"
"de:08212:2107:0:2","Grötzingen Büchelbergstraße","49.0056551013904","8.49560120507478","0100","","","Pde:08212:2107"
"de:08212:2108:0:1","Grötzingen Staigstraße","49.0028618314212","8.49789190904961","0100","","","Pde:08212:2108"
"de:08212:2108:0:2","Grötzingen Staigstraße","49.0029384421808","8.49786495959108","0100","","","Pde:08212:2108"
"de:08212:2109:0:1","Grötzingen Gustav-Hofmann-Str.","49.0040227664478","8.50661455045962","0100","","","Pde:08212:2109"
"de:08212:2109:0:2","Grötzingen Gustav-Hofmann-Str.","49.0040345524515","8.50653370208404","0100","","","Pde:08212:2109"
"de:08212:211:0:1","Karlsruhe Messe","48.9816773827139","8.32856846112235","0100","","","Pde:08212:211"
"de:08212:211:0:2","Karlsruhe Messe","48.9816596957719","8.32855049481666","0100","","","Pde:08212:211"
"de:08212:2110:2:3","Grötzingen Ringelberghohl","49.0034629280624","8.50233856970662","0100","","","Pde:08212:2110"
"de:08212:2110:2:4","Grötzingen Ringelberghohl","49.0034865003318","8.50245535069357","0100","","","Pde:08212:2110"
"de:08212:2111:1:1","Grötzingen Eisenbahnstraße","49.0051011742309","8.50113482722573","0100","","",""
"de:08212:2112:1:1","Grötzingen An der Pfinz","49.0059261698826","8.50196127728723","0100","","",""
"de:08212:2222:0:1","Stupferich Efeustraße","48.956655877328","8.51252546502995","0100","","","Pde:08212:2222"
"de:08212:2222:0:2","Stupferich Efeustraße","48.9566381815079","8.51261529655837","0100","","","Pde:08212:2222"
"de:08212:224:0:1","Rheinstetten Messe Ost","48.9799794076556","8.33193714343826","0232","","","Pde:08212:224"
"de:08212:23:1:1","Neureut Rosmarinweg","49.0356169109695","8.38553961644914","0100","","","Pde:08212:23"
"de:08212:23:1:2","Neureut Rosmarinweg","49.0352871111522","8.38580911103441","0100","","","Pde:08212:23"
"de:08212:2302:0:1","Durlach Dürrbachstraße","48.9947404225492","8.48212647581111","0100","","","Pde:08212:2302"
"de:08212:2302:0:2","Durlach Dürrbachstraße","48.9948170458014","8.48200071167132","0100","","","Pde:08212:2302"
"de:08212:2303:0:1","Durlach Lerchenberg","48.9915810843109","8.48823501974398","0100","","","Pde:08212:2303"
"de:08212:2303:0:2","Durlach Lerchenberg","48.9914278277341","8.48825298604966","0100","","","Pde:08212:2303"
"de:08212:2304:0:1","Durlach Eisenhafengrund","48.9885217580384","8.49128929171041","0100","","","Pde:08212:2304"
"de:08212:2304:0:2","Durlach Eisenhafengrund","48.988781130174","8.4912443759462","0100","","","Pde:08212:2304"
"de:08212:2305:0:1","Thomashof","48.9672604428514","8.50442266116606","0100","","","Pde:08212:2305"
"de:08212:2305:0:2","Durlach Thomashof","48.9676614611451","8.50427893072058","0100","","","Pde:08212:2305"
"de:08212:2306:0:1","Stupferich Gerberastraße","48.9563314529623","8.50737811845123","0100","","","Pde:08212:2306"
"de:08212:2306:0:2","Stupferich Gerberastraße","48.9564730202178","8.50737811845123","0100","","","Pde:08212:2306"
"de:08212:2307:0:1","Stupferich Karlsbader Str.","48.9539719395562","8.50789914131609","0100","","","Pde:08212:2307"
"de:08212:2307:0:2","Stupferich Karlsbader Str.","48.9542255926011","8.50871660822475","0100","","","Pde:08212:2307"
"de:08212:2307:0:3","Stupferich Karlsbader Str.","48.953954242784","8.50803388860873","0100","","","Pde:08212:2307"
"de:08212:231:1:1","Hagsfeld Süd","49.0242198818672","8.44912237226797","0100","","","Pde:08212:231"
"de:08212:231:11:11","Hagsfeld Süd","49.0248678449823","8.45000272124653","0100","","","Pde:08212:231"
"de:08212:231:12:12","Hagsfeld Süd","49.0250975753336","8.44977814242547","0100","","","Pde:08212:231"
"de:08212:231:2:2","Hagsfeld Süd","49.0246557852552","8.4499128897181","0100","","","Pde:08212:231"
"de:08212:233:1:1","Hagsfeld Geroldsäcker","49.0329077762537","8.45535668034062","0100","","","Pde:08212:233"
"de:08212:233:2:2","Hagsfeld Geroldsäcker","49.0327723156451","8.45536566349347","0100","","","Pde:08212:233"
"de:08212:237:1:1","Knielingen Sudetenstraße","49.0305401072826","8.34512441181097","0100","","","Pde:08212:237"
"de:08212:237:2:2","Knielingen Sudetenstraße","49.0302868424879","8.34553763684173","0100","","","Pde:08212:237"
"de:08212:237:21:21","Knielingen Sudetenstraße","49.0305577768713","8.34531305802067","0100","","","Pde:08212:237"
"de:08212:238:1:1","Knielingen Pionierstraße","49.0334849521044","8.34808885224898","0100","","","Pde:08212:238"
"de:08212:238:11:11","Knielingen Pionierstraße","49.0333730511872","8.34714562120053","0100","","","Pde:08212:238"
"de:08212:238:12:12","Knielingen Pionierstraße","49.0333141558666","8.34718155381189","0100","","","Pde:08212:238"
"de:08212:238:2:2","Knielingen Pionierstraße","49.0332140336615","8.34769359352391","0100","","","Pde:08212:238"
"de:08212:238:21:21","Knielingen Pionierstraße","49.0326545235117","8.34719952011758","0100","","","Pde:08212:238"
"de:08212:239:1:1","Knielingen Egon-Eiermann-Allee","49.035982043931","8.35015497740275","0100","","","Pde:08212:239"
"de:08212:239:11:11","Knielingen Egon-Eiermann-Allee","49.0351928822313","8.35120600628531","0100","","","Pde:08212:239"
"de:08212:239:12:12","Knielingen Egon-Eiermann-Allee","49.0350515385154","8.35129583781374","0100","","","Pde:08212:239"
"de:08212:239:2:2","Knielingen Egon-Eiermann-Allee","49.0356875820744","8.35047837090507","0100","","","Pde:08212:239"
"de:08212:239:21:21","Knielingen Egon-Eiermann-Allee","49.0359525978238","8.35032565730675","0100","","","Pde:08212:239"
"de:08212:240:2:2","Knielingen Nord","49.0377428894547","8.34778342505234","0100","","","Pde:08212:240"
"de:08212:240:21:21","Knielingen Nord","49.0384907882578","8.34697494129652","0100","","","Pde:08212:240"
"de:08212:26:11:21","Karlsruhe Rheinhafen Nord","49.0171035136586","8.32049260671699","0100","","","Pde:08212:26"
"de:08212:3:1:1","KA Durlacher Tor/KIT-Campus Süd","49.008937288023","8.41777116884783","0100","","","Pde:08212:3"
"de:08212:3:11:11","KA Durlacher Tor/KIT-Campus Süd","49.0091906614783","8.41792388244616","0100","","","Pde:08212:3"
"de:08212:3:11:13","KA Durlacher Tor/KIT-Campus Süd","49.0093910023675","8.41845388846386","0100","","","Pde:08212:3"
"de:08212:3:11:14","KA Durlacher Tor/KIT-Campus Süd","49.0092908320237","8.41819337703143","0100","","","Pde:08212:3"
"de:08212:3:12:12","KA Durlacher Tor/KIT-Campus Süd","49.0086249887342","8.41854371999228","0100","","","Pde:08212:3"
"de:08212:3:2:2","KA Durlacher Tor/KIT-Campus Süd","49.0087310528633","8.41873236620197","0100","","","Pde:08212:3"
"de:08212:3:3:3","KA Durlacher Tor/KIT-Campus Süd","49.0092436929686","8.41778015200068","0100","","","Pde:08212:3"
"de:08212:3:4:4","KA Durlacher Tor/KIT-Campus Süd","49.00954420368","8.41863355152071","0100","","","Pde:08212:3"
"de:08212:3002:0:1","Karlsruhe Studentenhaus","49.0113766905291","8.41814846126722","0100","","","Pde:08212:3002"
"de:08212:3002:0:2","Karlsruhe Studentenhaus","49.0110231613396","8.417932865599","0100","","","Pde:08212:3002"
"de:08212:3003:0:1","Karlsruhe Pastor-Felke-Straße","49.0155599286596","8.42228969472758","0100","","","Pde:08212:3003"
"de:08212:3003:0:2","Karlsruhe Pastor-Felke-Straße","49.0155127955401","8.42223579581053","0100","","","Pde:08212:3003"
"de:08212:3004:0:1","Karlsruhe Büchiger Allee","49.01976637984","8.42132849737344","0100","","","Pde:08212:3004"
"de:08212:3004:0:2","Karlsruhe Büchiger Allee","49.0196132099832","8.42132849737344","0100","","","Pde:08212:3004"
"de:08212:3005:0:1","Karlsruhe Rintheimer Querallee","49.0255275805765","8.42459836500809","0100","","","Pde:08212:3005"
"de:08212:3005:0:2","Karlsruhe Rintheimer Querallee","49.0252566188016","8.42403242637902","0100","","","Pde:08212:3005"
"de:08212:3008:0:1","Waldstadt Breslauer Straße","49.0288084571452","8.43032961652157","0100","","","Pde:08212:3008"
"de:08212:3008:0:2","Waldstadt Breslauer Straße","49.0290558394262","8.43047334696705","0100","","","Pde:08212:3008"
"de:08212:3009:0:1","Waldstadt Schneidemühler Str.","49.0352046608562","8.43147047693256","0100","","","Pde:08212:3009"
"de:08212:3009:0:2","Waldstadt Schneidemühler Str.","49.0349043050509","8.43091352145633","0100","","","Pde:08212:3009"
"de:08212:3010:0:1","Waldstadt Kolberger Straße","49.0385791220195","8.43527035058492","0100","","","Pde:08212:3010"
"de:08212:3010:0:2","Waldstadt Kolberger Straße","49.0382552307928","8.43477627717858","0100","","","Pde:08212:3010"
"de:08212:3011:0:1","Waldstadt Elbinger Straße West","49.0412113961263","8.43842343723261","0100","","","Pde:08212:3011"
"de:08212:3011:0:2","Waldstadt Elbinger Straße West","49.0409287424962","8.43798326274334","0100","","","Pde:08212:3011"
"de:08212:3012:1:1","Waldstadt Europäische Schule","49.0447974245765","8.44679573568177","0100","","","Pde:08212:3012"
"de:08212:3012:11:11","Waldstadt Europäische Schule","49.0453980148975","8.44764015204897","0100","","","Pde:08212:3012"
"de:08212:3012:2:2","Waldstadt Europäische Schule","49.0453391338142","8.44729879224095","0100","","","Pde:08212:3012"
"de:08212:3013:1:1","Hagsfeld Reitschulschlag","49.0425245367157","8.46080047096315","0100","","","Pde:08212:3013"
"de:08212:3013:2:2","Hagsfeld Reitschulschlag","49.043260586904","8.46087233618589","0100","","","Pde:08212:3013"
"de:08212:3013:3:3","Hagsfeld Reitschulschlag","49.0440790619209","8.46106996554842","0100","","","Pde:08212:3013"
"de:08212:3014:0:1","Karlsruhe Emil-Gött-Straße","49.0132974885846","8.42069967667447","0100","","","Pde:08212:3014"
"de:08212:3014:0:2","Karlsruhe Emil-Gött-Straße","49.0133799751851","8.42069967667447","0100","","","Pde:08212:3014"
"de:08212:3017:1:1","Waldstadt Elbinger Straße Ost","49.0407933037291","8.4506944240154","0100","","","Pde:08212:3017"
"de:08212:3017:2:2","Waldstadt Elbinger Straße Ost","49.0406460872596","8.45049679465286","0100","","","Pde:08212:3017"
"de:08212:302:1:1","Daxlanden Mauerweg","49.0078059303509","8.33900688472527","0100","","","Pde:08212:302"
"de:08212:302:12:12","Daxlanden Mauerweg","49.0077705750094","8.33958180650719","0100","","","Pde:08212:302"
"de:08212:302:2:2","Daxlanden Mauerweg","49.0077116493845","8.33951892443729","0100","","","Pde:08212:302"
"de:08212:302:21:21","Daxlanden Mauerweg","49.0078412856672","8.3393931602975","0100","","","Pde:08212:302"
"de:08212:303:1:1","Daxlanden Ankerstraße","49.0064918732872","8.33441649362278","0100","","","Pde:08212:303"
"de:08212:303:1:11","Daxlanden Ankerstraße","49.006515444123","8.33447039253983","0100","","","Pde:08212:303"
"de:08212:303:2:12","Daxlanden Ankerstraße","49.0066863323483","8.33477581973648","0100","","","Pde:08212:303"
"de:08212:303:2:2","Daxlanden Ankerstraße","49.0067216884596","8.33481175234785","0100","","","Pde:08212:303"
"de:08212:304:1:1","Daxlanden Kirchplatz","49.005413495621","8.3317754466871","0100","","","Pde:08212:304"
"de:08212:304:11:11","Daxlanden Kirchplatz","49.0053781385808","8.33208087388374","0100","","","Pde:08212:304"
"de:08212:304:12:12","Daxlanden Kirchplatz","49.005207245866","8.33233240216333","0100","","","Pde:08212:304"
"de:08212:304:2:2","Daxlanden Kirchplatz","49.0052308173099","8.3323683347747","0100","","","Pde:08212:304"
"de:08212:305:1:1","Daxlanden Hammweg","49.0039049062581","8.32670894848396","0100","","","Pde:08212:305"
"de:08212:305:1:11","Daxlanden Hammweg","49.0039049062581","8.32735573548862","0100","","","Pde:08212:305"
"de:08212:305:2:12","Daxlanden Hammweg","49.0035041795266","8.32824506762002","0100","","","Pde:08212:305"
"de:08212:305:2:2","Daxlanden Hammweg","49.0034923933975","8.32827201707855","0100","","","Pde:08212:305"
"de:08212:306:1:1","Daxlanden Waidweg","49.0043822383037","8.32210957422863","0100","","","Pde:08212:306"
"de:08212:306:2:2","Daxlanden Waidweg","49.0042879508548","8.3227383949276","0100","","","Pde:08212:306"
"de:08212:306:21:21","Daxlanden Waidweg","49.0054252812955","8.32285517591455","0100","","","Pde:08212:306"
"de:08212:306:22:22","Daxlanden Waidweg","49.0054076027828","8.32278331069181","0100","","","Pde:08212:306"
"de:08212:306:23:3","Daxlanden Waidweg","49.0048713515795","8.32238805196675","0100","","","Pde:08212:306"
"de:08212:306:3:3","Daxlanden Waidweg","49.0046768854307","8.32237008566106","0100","","","Pde:08212:306"
"de:08212:307:1:1","Daxlanden Altrheinbrücke","49.0008581235515","8.31190471259961","0100","","","Pde:08212:307"
"de:08212:307:11:11","Daxlanden Altrheinbrücke","49.0008934838009","8.3119226789053","0100","","","Pde:08212:307"
"de:08212:307:12:12","Daxlanden Altrheinbrücke","49.0008168698955","8.31190471259961","0100","","","Pde:08212:307"
"de:08212:307:2:2","Daxlanden Altrheinbrücke","49.000834550038","8.31194064521098","0100","","","Pde:08212:307"
"de:08212:308:22:22","Daxlanden Rappenwört","48.9994260123536","8.29476485697622","0100","","","Pde:08212:308"
"de:08212:308:3:3","Daxlanden Rappenwört","48.9989132711733","8.29542062713372","0100","","","Pde:08212:308"
"de:08212:309:1:1","Daxlanden Tierheim","49.0036043615118","8.31916310009631","0100","","","Pde:08212:309"
"de:08212:309:2:2","Daxlanden Tierheim","49.0035572170733","8.31910920117925","0100","","","Pde:08212:309"
"de:08212:310:1:1","Karlsruhe Dunantstraße","49.0114591803121","8.43575544083841","0100","","","Pde:08212:310"
"de:08212:310:2:2","Karlsruhe Dunantstraße","49.0114591803121","8.43631239631464","0100","","","Pde:08212:310"
"de:08212:3102:1:1","Hagsfeld Bahnhof","49.0272298936262","8.45373072967614","0100","","","Pde:08212:3102"
"de:08212:3102:11:11","Hagsfeld Bahnhof","49.0269766119814","8.45410802209553","0100","","","Pde:08212:3102"
"de:08212:3102:12:12","Hagsfeld Bahnhof","49.0269707216953","8.45430565145806","0100","","","Pde:08212:3102"
"de:08212:3102:2:2","Hagsfeld Bahnhof","49.0277187824574","8.45394632534436","0100","","","Pde:08212:3102"
"de:08212:3103:0:1","Hagsfeld Oberdorfstraße","49.0282724579837","8.4559226189697","0100","","","Pde:08212:3103"
"de:08212:3103:0:2","Hagsfeld Oberdorfstraße","49.0282547875833","8.45581482113559","0100","","","Pde:08212:3103"
"de:08212:3104:0:1","Hagsfeld Julius-Bender-Straße","49.0290793995792","8.45676703533689","0100","","","Pde:08212:3104"
"de:08212:3104:0:2","Hagsfeld Julius-Bender-Straße","49.0293150004965","8.45711737829775","0100","","","Pde:08212:3104"
"de:08212:3105:0:1","Hagsfeld Pfizer","49.0235601289359","8.45326360572834","0100","","","Pde:08212:3105"
"de:08212:3105:0:2","Hagsfeld Pfizer","49.0235954730647","8.45324563942265","0100","","","Pde:08212:3105"
"de:08212:3106:0:1","Hagsfeld An der Tagweide","49.0210270676776","8.45644364183456","0100","","","Pde:08212:3106"
"de:08212:3106:0:2","Hagsfeld An der Tagweide","49.0210800865599","8.45647059129309","0100","","","Pde:08212:3106"
"de:08212:3106:0:3","Hagsfeld An der Tagweide","49.0208208825987","8.45785399683083","0100","","","Pde:08212:3106"
"de:08212:3107:1:1","Hagsfeld Printzstraße","49.0237015053004","8.46307320863229","0100","","","Pde:08212:3107"
"de:08212:3107:1:2","Hagsfeld Printzstraße","49.0237486306659","8.46301930971523","0100","","","Pde:08212:3107"
"de:08212:3107:2:3","Hagsfeld Printzstraße","49.0244496152097","8.46141132535644","0100","","","Pde:08212:3107"
"de:08212:3108:0:1","Hagsfeld Neue Wiesen","49.0205263310043","8.46097115086715","0100","","","Pde:08212:3108"
"de:08212:3108:0:2","Hagsfeld Neue Wiesen","49.0205086578532","8.46099810032568","0100","","","Pde:08212:3108"
"de:08212:3109:0:1","Hagsfeld Storrenacker Süd","49.0190005258424","8.46699884642444","0100","","","Pde:08212:3109"
"de:08212:3109:0:2","Hagsfeld Storrenacker Süd","49.019018199529","8.46692698120169","0100","","","Pde:08212:3109"
"de:08212:3110:0:1","Hagsfeld Storrenacker Mitte","49.021150778315","8.46809479107121","0100","","","Pde:08212:3110"
